,City,Lat,Lng,Max Temp,Humidity,Cloudiness,Wind Speed,Country,Date
0,cape town,-33.9258,18.4232,68.0,63,0,18.41,ZA,1612729865
1,jamestown,42.097,-79.2353,16.0,67,90,18.41,US,1612729959
2,komsomolskiy,40.4272,71.7189,41.0,81,99,6.91,UZ,1612729959
3,jeremie,18.65,-74.1167,81.66,58,1,5.3,HT,1612729959
4,busselton,-33.65,115.3333,62.01,99,87,1.99,AU,1612729959
5,vila velha,-20.3297,-40.2925,71.6,94,90,11.5,BR,1612729919
6,kamenka,51.3223,42.7678,-6.5,91,17,9.86,RU,1612729373
7,rikitea,-23.1203,-134.9692,77.4,73,97,13.04,PF,1612729959
8,provideniya,64.3833,-173.3,-3.77,80,66,16.44,RU,1612729959
9,yellowknife,62.456,-114.3525,-34.01,61,1,4.61,CA,1612729960
10,port moresby,-9.4431,147.1797,77.0,94,90,10.36,PG,1612729960
11,sambalpur,21.45,83.9667,56.39,42,1,5.26,IN,1612729960
12,hualmay,-11.0964,-77.6139,76.66,62,99,9.8,PE,1612729443
13,dikson,73.5069,80.5464,-32.1,85,90,15.93,RU,1612729960
14,batticaloa,7.7102,81.6924,77.61,86,14,12.33,LK,1612729960
15,souillac,-20.5167,57.5167,80.6,78,75,9.22,MU,1612729960
16,khatanga,71.9667,102.5,-30.3,80,0,10.11,RU,1612729960
17,lorengau,-2.0226,147.2712,82.18,78,100,6.64,PG,1612729960
18,ulagan,50.6321,87.9563,12.2,84,58,4.59,RU,1612729960
19,sinnamary,5.3833,-52.95,78.37,85,100,14.47,GF,1612729960
20,bengkulu,-3.8004,102.2655,75.31,83,99,6.78,ID,1612729960
21,chuy,-33.6971,-53.4616,71.04,71,41,10.42,UY,1612729960
22,port alfred,-33.5906,26.891,66.99,95,98,7.85,ZA,1612729961
23,punta arenas,-53.15,-70.9167,71.6,23,0,13.8,CL,1612729816
24,shimanovsk,52.0,127.7,-13.09,87,0,8.88,RU,1612729961
25,codrington,-38.2667,141.9667,56.37,70,100,10.2,AU,1612729328
26,aitape,-3.1374,142.3475,77.38,83,99,5.64,PG,1612729961
27,jurilovca,44.7667,28.8667,45.0,93,90,5.75,RO,1612729961
28,victoria,22.2855,114.1577,68.0,83,0,12.3,HK,1612729682
29,hilo,19.7297,-155.09,78.8,53,1,4.61,US,1612729763
30,cherskiy,68.75,161.3,-3.69,68,6,1.48,RU,1612729961
31,hay river,60.8156,-115.7999,-31.0,61,30,4.61,CA,1612729851
32,effium,6.6292,8.0593,86.0,39,100,3.4,NG,1612729961
33,ketchikan,55.3422,-131.6461,30.2,64,1,13.8,US,1612729962
34,hobart,-42.8794,147.3294,55.4,62,75,9.22,AU,1612729804
35,hermanus,-34.4187,19.2345,66.0,79,8,4.88,ZA,1612729962
36,lebu,-37.6167,-73.65,62.56,81,44,7.76,CL,1612729962
37,husavik,66.0449,-17.3389,32.0,80,90,2.3,IS,1612729962
38,terra santa,-2.1042,-56.4869,89.82,54,87,1.41,BR,1612729962
39,kentville,45.0835,-64.4988,30.99,51,100,4.61,CA,1612729962
40,astana,51.1801,71.446,19.4,93,75,15.66,KZ,1612729962
41,mataura,-46.1927,168.8643,63.41,57,98,2.89,NZ,1612729962
42,port augusta,-32.5,137.7667,62.6,72,0,9.22,AU,1612729962
43,muborak,39.2553,65.1528,51.89,65,42,2.46,UZ,1612729962
44,alyangula,-13.8483,136.4192,80.6,89,75,9.22,AU,1612729962
45,rudbar,30.15,62.6,61.92,26,28,10.94,AF,1612729962
46,bluff,-46.6,168.3333,58.26,73,97,5.21,NZ,1612729962
47,ushuaia,-54.8,-68.3,60.8,55,40,8.05,AR,1612729780
48,puerto ayora,-0.7393,-90.3518,86.0,66,40,20.71,EC,1612729963
49,mahebourg,-20.4081,57.7,80.6,78,75,9.22,MU,1612729634
50,progreso,21.2833,-89.6667,89.6,48,75,6.91,MX,1612729963
51,amot,59.5714,7.9877,14.0,80,0,7.0,NO,1612729963
52,barrow,71.2906,-156.7887,-23.8,76,1,11.5,US,1612729882
53,fortuna,40.5982,-124.1573,54.0,81,1,5.75,US,1612729963
54,cidreira,-30.1811,-50.2056,74.25,63,0,8.72,BR,1612729963
55,vaini,-21.2,-175.2,78.8,78,75,12.66,TO,1612729963
56,kapaa,22.0752,-159.319,73.0,56,1,3.29,US,1612729963
57,tuatapere,-46.1333,167.6833,62.08,67,100,6.62,NZ,1612729963
58,banda aceh,5.5577,95.3222,78.91,80,46,6.42,ID,1612729479
59,albany,42.6001,-73.9662,28.99,72,100,3.36,US,1612729804
60,fare,-16.7,-151.0167,81.28,73,87,11.25,PF,1612729467
61,arraial do cabo,-22.9661,-42.0278,73.4,88,75,4.61,BR,1612729964
62,mana,5.6592,-53.7767,78.49,86,97,13.09,GF,1612729964
63,lavrentiya,65.5833,-171.0,-9.89,85,0,9.37,RU,1612729964
64,rock springs,41.5875,-109.2029,37.4,28,1,33.38,US,1612729964
65,seybaplaya,19.65,-90.6667,87.8,55,20,11.5,MX,1612729964
66,ponta do sol,32.6667,-17.1,59.0,68,40,7.0,PT,1612729964
67,hithadhoo,-0.6,73.0833,81.88,70,74,7.27,MV,1612729964
68,sept-iles,50.2001,-66.3821,24.01,58,5,5.75,CA,1612729742
69,narsaq,60.9167,-46.05,37.4,28,53,49.48,GL,1612729964
70,campos belos,-13.0367,-46.7717,67.84,97,100,3.47,BR,1612729964
71,klaksvik,62.2266,-6.589,33.8,86,75,12.66,FO,1612729964
72,bethel,41.3712,-73.414,28.99,93,90,4.61,US,1612729688
73,notse,6.95,1.1667,83.26,70,97,10.71,TG,1612729964
74,biak,-0.9131,122.8766,77.22,79,100,2.08,ID,1612729434
75,saldanha,-33.0117,17.9442,64.4,68,0,14.97,ZA,1612729965
76,san mateo del mar,16.2,-95.0,83.91,62,0,26.98,MX,1612729965
77,singkawang,0.9,109.0,73.42,93,70,4.43,ID,1612729965
78,tuktoyaktuk,69.4541,-133.0374,-25.6,68,75,16.11,CA,1612729965
79,dudinka,69.4058,86.1778,-27.65,81,54,12.01,RU,1612729965
80,tasiilaq,65.6145,-37.6368,24.8,54,0,16.11,GL,1612729965
81,dinghai,26.2847,119.7936,62.6,72,75,6.71,CN,1612729965
82,guerrero negro,27.9769,-114.0611,76.14,19,0,4.52,MX,1612729564
83,antsohihy,-14.8796,47.9875,73.89,93,100,3.02,MG,1612729965
84,mar del plata,-38.0023,-57.5575,61.0,94,90,13.8,AR,1612729673
85,yucca valley,34.1142,-116.4322,66.99,23,3,4.0,US,1612729966
86,porto torres,40.835,8.3972,53.6,71,40,6.91,IT,1612729966
87,morwell,-38.2333,146.4,57.0,73,85,1.01,AU,1612729966
88,kharan,28.5833,65.4167,55.8,29,6,4.45,PK,1612729966
89,idlib,35.9306,36.6339,57.2,77,40,11.5,SY,1612729966
90,chokurdakh,70.6333,147.9167,-18.98,87,100,8.77,RU,1612729966
91,oistins,13.0667,-59.5333,82.4,57,75,24.16,BB,1612729783
92,calbuco,-41.768,-73.1273,77.0,53,0,11.5,CL,1612729966
93,penzance,50.1186,-5.5371,37.4,65,90,19.57,GB,1612729966
94,pacific grove,36.6177,-121.9166,63.0,71,1,6.91,US,1612729966
95,vadlapudi,14.3167,79.8,66.27,84,99,1.81,IN,1612729966
96,beloha,-25.1667,45.05,75.54,91,11,7.67,MG,1612729966
97,bandarbeyla,9.4942,50.8122,75.87,78,22,18.01,SO,1612729767
98,iquique,-20.2208,-70.1431,77.0,47,0,19.57,CL,1612729883
99,manokwari,-0.8667,134.0833,78.58,78,100,2.73,ID,1612729967
100,east london,-33.0153,27.9116,71.76,84,100,8.14,ZA,1612729967
101,salalah,17.0151,54.0924,73.4,68,75,3.44,OM,1612729967
102,przasnysz,53.0191,20.8803,10.0,78,0,8.05,PL,1612729933
103,saint-philippe,-21.3585,55.7679,80.6,74,0,3.44,RE,1612729967
104,camana,-16.6228,-72.7111,74.61,72,99,5.32,PE,1612729830
105,creel,27.75,-107.6333,60.75,29,0,15.77,MX,1612729967
106,los llanos de aridane,28.6585,-17.9182,62.6,72,20,3.44,ES,1612729967
107,eyl,7.9803,49.8164,75.16,79,2,17.38,SO,1612729967
108,mogadishu,2.0371,45.3438,77.92,79,4,23.69,SO,1612729505
109,kavieng,-2.5744,150.7967,83.26,76,75,8.34,PG,1612729967
110,vermilion,40.1667,-87.7506,6.01,61,90,5.75,US,1612729967
111,iskateley,67.6803,53.1512,-17.27,87,100,16.49,RU,1612729670
112,waipawa,-41.4122,175.5153,66.99,82,75,20.71,NZ,1612729968
113,kanelovskaya,46.5908,39.19,26.98,77,100,5.48,RU,1612729968
114,nhulunbuy,-12.2333,136.7667,80.6,89,100,8.05,AU,1612729968
115,noyabrsk,63.1994,75.4507,10.51,94,98,22.64,RU,1612729968
116,kruisfontein,-34.0033,24.7314,64.99,89,97,3.0,ZA,1612729968
117,carpentras,44.0833,5.1667,44.6,87,0,2.3,FR,1612729969
118,nikolskoye,59.7035,30.7861,17.6,86,75,13.42,RU,1612729969
119,geraldton,-28.7667,114.6,66.2,88,75,16.11,AU,1612729969
120,thompson,55.7435,-97.8558,-27.4,68,75,14.97,CA,1612729809
121,tura,25.5198,90.2201,57.04,48,0,3.38,IN,1612729969
122,naze,28.3667,129.4833,57.49,65,0,9.46,JP,1612729351
123,severo-kurilsk,50.6789,156.125,15.03,88,30,8.77,RU,1612729969
124,puerto del rosario,28.5004,-13.8627,62.6,67,20,10.36,ES,1612729859
125,pisco,-13.7,-76.2167,75.2,78,0,4.61,PE,1612729969
126,atuona,-9.8,-139.0333,79.47,75,18,21.61,PF,1612729969
127,camajuani,22.4833,-79.75,89.6,48,40,9.22,CU,1612729970
128,dukat,62.55,155.55,4.68,86,100,15.21,RU,1612729928
129,mandalgovi,45.7625,106.2708,12.27,81,0,10.0,MN,1612729394
130,riyadh,24.6877,46.7219,59.0,58,0,11.5,SA,1612729707
131,clyde river,70.4692,-68.5914,-4.0,92,75,8.05,CA,1612729971
132,maceio,-9.6658,-35.7353,80.6,78,0,12.66,BR,1612729971
133,kaitangata,-46.2817,169.8464,63.0,83,100,3.0,NZ,1612729971
134,dawlatabad,36.4141,64.9053,52.52,52,47,2.84,AF,1612729971
135,avarua,-21.2078,-159.775,84.2,74,20,13.8,CK,1612729860
136,butaritari,3.0707,172.7902,80.91,80,99,20.18,KI,1612729971
137,san gabriel,34.0961,-118.1058,71.01,42,1,4.61,US,1612729855
138,tateyama,34.9833,139.8667,42.01,59,5,1.99,JP,1612729925
139,esperance,-33.8667,121.9,62.6,88,75,13.8,AU,1612729971
140,acari,-15.4311,-74.6158,78.8,59,83,10.33,PE,1612729971
141,georgetown,5.4112,100.3354,80.6,83,20,3.44,MY,1612729971
142,odweyne,9.4092,45.064,66.27,45,16,9.37,SO,1612729971
143,westport,41.1415,-73.3579,30.99,93,90,9.22,US,1612729971
144,elmina,5.0898,-1.348,80.78,86,98,12.08,GH,1612729971
145,inhambane,-23.865,35.3833,82.4,69,20,8.97,MZ,1612729972
146,campbell river,50.0163,-125.2446,45.0,53,75,12.66,CA,1612729800
147,dunedin,-45.8742,170.5036,61.0,88,87,1.01,NZ,1612729952
148,yar-sale,66.8333,70.8333,-11.24,89,100,24.09,RU,1612729972
149,bambous virieux,-20.3428,57.7575,81.0,78,75,9.22,MU,1612729972
150,gravdal,68.1214,13.5031,30.2,80,40,6.91,NO,1612729766
151,hasaki,35.7333,140.8333,32.0,86,20,5.06,JP,1612729973
152,chala,-7.5833,31.2667,62.6,100,20,1.79,TZ,1612729973
153,lenger,42.183,69.8839,44.6,93,40,8.77,KZ,1612729973
154,khani,41.9563,42.9566,44.6,100,75,5.75,GE,1612729596
155,airai,-8.9266,125.4092,60.73,100,100,2.62,TL,1612729973
156,vanimo,-2.6741,141.3028,77.32,86,100,4.34,PG,1612729973
157,anchorage,61.2181,-149.9003,10.99,92,40,4.61,US,1612729800
158,kahului,20.8947,-156.47,75.2,57,1,8.05,US,1612729609
159,samarai,-10.6167,150.6667,81.61,77,100,4.79,PG,1612729383
160,vardo,70.3705,31.1107,23.0,86,90,36.82,NO,1612729973
161,pelym,61.0108,61.9978,-13.13,89,100,7.29,RU,1612729974
162,masallatah,32.6167,14.0,67.5,32,99,20.04,LY,1612729974
163,hampton,37.0299,-76.3452,41.0,100,90,19.57,US,1612729974
164,shimoda,34.6667,138.95,39.0,60,0,23.62,JP,1612729974
165,antalaha,-14.9003,50.2788,76.51,87,100,3.11,MG,1612729974
166,changji,44.0167,87.3167,14.0,92,100,2.24,CN,1612729895
167,new norfolk,-42.7826,147.0587,54.0,67,33,3.0,AU,1612729974
168,ahipara,-35.1667,173.1667,68.83,65,12,9.84,NZ,1612729974
169,sestri levante,44.2732,9.3968,53.01,80,89,14.83,IT,1612729974
170,qaanaaq,77.484,-69.3632,12.56,85,59,6.87,GL,1612729974
171,aklavik,68.2191,-135.0107,-16.6,69,90,13.8,CA,1612729974
172,taoudenni,22.6783,-3.9836,62.89,29,0,8.75,ML,1612729974
173,verkhozim,52.7122,45.418,-5.94,91,98,12.75,RU,1612729974
174,karlskrona,56.1616,15.5866,23.0,86,90,11.5,SE,1612729975
175,ilulissat,69.2167,-51.1,24.8,39,0,6.91,GL,1612729975
176,yulara,-25.2406,130.9889,73.4,35,0,6.91,AU,1612729975
177,byron bay,-28.65,153.6167,75.2,69,90,14.97,AU,1612729975
178,itoman,26.1247,127.6694,62.6,67,20,5.75,JP,1612729975
179,fukue,32.6881,128.8419,49.66,65,50,25.26,JP,1612729975
180,villa bruzual,9.3328,-69.1208,93.51,34,94,1.79,VE,1612729975
181,auki,-8.7676,160.7034,80.98,81,7,5.68,SB,1612729975
182,berbera,10.4396,45.0143,75.6,69,0,4.92,SO,1612729453
183,flin flon,54.7682,-101.865,-27.4,56,1,14.97,CA,1612729975
184,canon city,38.441,-105.2424,60.8,9,1,21.85,US,1612729975
185,mahanoro,-19.9,48.8,80.28,79,100,11.32,MG,1612729975
186,carutapera,-1.195,-46.02,80.15,81,2,7.85,BR,1612729976
187,torbay,47.6666,-52.7314,32.0,64,20,26.46,CA,1612729499
188,sibolga,1.7427,98.7792,76.33,79,100,4.12,ID,1612729976
189,tiarei,-17.5333,-149.3333,86.0,62,20,5.75,PF,1612729976
190,guisa,20.255,-76.5386,89.6,45,40,6.91,CU,1612729976
191,mehamn,71.0357,27.8492,28.4,74,75,31.07,NO,1612729212
192,hovd,48.0056,91.6419,13.48,86,100,0.43,MN,1612729976
193,zurrieq,35.8311,14.4742,64.4,72,0,11.5,MT,1612729976
194,yerbogachen,61.2767,108.0108,19.65,97,100,5.1,RU,1612729976
195,siguiri,11.6667,-9.5,78.44,20,97,3.51,GN,1612729976
196,gornorechenskiy,44.2624,135.1133,-7.15,82,6,12.66,RU,1612729976
197,eureka,40.8021,-124.1637,55.0,75,0,8.01,US,1612729697
198,pucallpa,-8.3791,-74.5539,89.6,62,40,8.05,PE,1612729976
199,faanui,-16.4833,-151.75,81.07,76,2,12.62,PF,1612729977
200,belaya gora,68.5333,146.4167,-26.28,83,93,3.51,RU,1612729977
201,berlevag,70.8578,29.0864,24.8,74,75,29.93,NO,1612729977
202,luderitz,-26.6481,15.1594,70.05,57,0,29.12,NA,1612729977
203,totness,5.8833,-56.3167,79.52,81,100,14.79,SR,1612729977
204,san rafael,-34.6177,-68.3301,76.82,41,0,26.87,AR,1612729834
205,marquette,46.5333,-87.6335,5.0,57,98,11.56,US,1612729977
206,sohbatpur,28.5202,68.5434,56.93,37,0,0.85,PK,1612729977
207,datong,40.0936,113.2914,19.47,71,0,2.46,CN,1612729977
208,honningsvag,70.9821,25.9704,28.4,59,75,26.46,NO,1612729978
209,krasnyy,54.5678,31.4333,-0.83,93,60,6.04,RU,1612729978
210,tiksi,71.6872,128.8694,-28.14,85,31,4.79,RU,1612729978
211,okaihau,-35.3167,173.7833,68.0,80,40,8.99,NZ,1612729804
212,fairfield,41.2668,-73.3162,30.2,93,90,4.61,US,1612729978
213,horodyshche,49.2849,31.4451,11.93,94,100,9.57,UA,1612729978
214,vostok,46.4856,135.8833,-15.72,90,100,3.15,RU,1612729978
215,khorixas,-20.3667,14.9667,68.4,50,80,8.66,NA,1612729978
216,fort morgan,40.2503,-103.8,55.4,13,40,16.11,US,1612729883
217,sindou,10.6667,-5.1667,82.26,17,0,4.72,BF,1612729978
218,zaysan,47.4667,84.8667,21.43,89,67,1.9,KZ,1612729978
219,rio grande,-32.035,-52.0986,78.8,61,20,9.22,BR,1612729486
220,zhangye,38.9342,100.4517,27.28,71,67,1.97,CN,1612729978
221,mayo,38.8876,-76.5119,41.0,100,90,4.61,US,1612729979
222,santa maria,-29.6842,-53.8069,86.0,51,20,5.75,BR,1612729965
223,bedele,8.456,36.353,56.26,43,26,3.33,ET,1612729979
224,saint helens,53.45,-2.7333,37.0,60,90,18.41,GB,1612729979
225,nioro,13.35,-15.75,78.84,17,96,7.83,GM,1612729979
226,tambo,-14.8,-73.9167,42.75,98,97,11.05,PE,1612729979
227,sorong,-0.8833,131.25,78.6,86,86,5.19,ID,1612729939
228,zacapu,19.8333,-101.7167,73.99,46,1,11.5,MX,1612729979
229,bosaso,11.2842,49.1816,75.18,78,17,2.21,SO,1612729979
230,urumqi,43.801,87.6005,14.0,92,100,2.24,CN,1612729979
231,koumac,-20.5667,164.2833,80.13,68,77,0.87,NC,1612729980
232,tuy hoa,13.0833,109.3,71.13,89,100,5.17,VN,1612729492
233,sibu,2.3,111.8167,75.2,100,40,2.3,MY,1612729860
234,mareeba,-17.0,145.4333,80.01,100,100,1.81,AU,1612729980
235,ibra,22.6906,58.5334,53.19,90,0,1.07,OM,1612729980
236,port lincoln,-34.7333,135.8667,59.36,79,73,15.39,AU,1612729422
237,umm kaddadah,13.6017,26.6876,63.88,27,0,12.82,SD,1612729980
238,rosetta,31.4044,30.4164,59.0,82,20,5.75,EG,1612729980
239,sulangan,11.1373,123.7228,80.53,81,100,16.93,PH,1612729980
240,mumbwa,-14.9783,27.0619,67.08,93,99,4.94,ZM,1612729980
241,srednekolymsk,67.45,153.6833,-10.17,84,98,3.89,RU,1612729980
242,mao,39.8885,4.2658,42.8,93,0,1.14,ES,1612729981
243,lingao,19.9103,109.6859,68.11,87,99,7.92,CN,1612729981
244,santa rosalia,27.3167,-112.2833,68.43,26,0,5.59,MX,1612729981
245,nanortalik,60.1432,-45.2371,29.23,89,91,9.24,GL,1612729981
246,sao gabriel da cachoeira,-0.1303,-67.0892,82.4,83,75,13.8,BR,1612729981
247,havoysund,70.9963,24.6622,28.4,59,75,26.46,NO,1612729981
248,kabale,-1.2486,29.9899,60.3,77,66,3.36,UG,1612729981
249,vestmannaeyjar,63.4427,-20.2734,38.55,75,35,22.01,IS,1612729982
250,goderich,43.7501,-81.7165,10.4,67,100,14.97,CA,1612729656
251,kemijarvi,66.7131,27.4306,9.84,94,17,7.31,FI,1612729982
252,governador valadares,-18.8511,-41.9494,74.12,88,100,6.13,BR,1612729982
253,maniitsoq,65.4167,-52.9,26.26,80,0,15.59,GL,1612729982
254,mapiripan,2.8892,-72.1256,86.34,66,99,5.75,CO,1612729982
255,ulladulla,-35.35,150.4667,64.99,77,75,5.75,AU,1612729982
256,labelle,26.7617,-81.4384,84.0,74,40,4.61,US,1612729982
257,jhudo,24.964,69.2968,59.88,34,0,6.17,PK,1612729982
258,san patricio,28.017,-97.5169,75.2,40,20,14.97,US,1612729110
259,dali,25.7,100.1833,40.77,82,25,1.68,CN,1612729983
260,imeni poliny osipenko,52.4201,136.4853,-1.34,87,100,0.47,RU,1612729983
261,namibe,-15.1961,12.1522,73.02,75,100,4.16,AO,1612729983
262,saint george,37.1041,-113.5841,57.99,25,1,4.61,US,1612729983
263,alirajpur,22.3031,74.3546,61.83,30,0,6.91,IN,1612729983
264,borborema,-21.6197,-49.0736,79.68,65,14,7.23,BR,1612729983
265,port elizabeth,-33.918,25.5701,66.2,94,90,8.05,ZA,1612729983
266,ordu,40.9086,37.6845,50.0,100,75,4.61,TR,1612729983
267,lebedinyy,58.5167,125.5167,-16.53,78,0,6.44,RU,1612729983
268,iqaluit,63.7506,-68.5145,26.6,74,75,6.91,CA,1612729984
269,port-cartier,50.0334,-66.8654,24.01,58,7,5.75,CA,1612729984
270,padang,-0.9492,100.3543,77.0,83,20,5.75,ID,1612729984
271,pangnirtung,66.1451,-65.7125,33.8,44,20,16.11,CA,1612729984
272,along,28.1667,94.7667,49.73,57,0,1.72,IN,1612729984
273,saskylakh,71.9167,114.0833,-37.32,78,28,13.71,RU,1612729984
274,bredasdorp,-34.5322,20.0403,64.4,68,30,5.75,ZA,1612729984
275,tibati,6.4667,12.6333,69.03,25,77,3.11,CM,1612729984
276,point fortin,10.1833,-61.6833,84.99,72,97,3.0,TT,1612729984
277,rocha,-34.4833,-54.3333,73.06,70,27,12.73,UY,1612729537
278,ribeira grande,38.5167,-28.7,59.0,77,40,12.66,PT,1612729984
279,sovetskiy,61.3614,63.5842,-14.19,89,100,7.49,RU,1612729984
280,longyearbyen,78.2186,15.6401,14.0,67,75,16.11,SJ,1612729985
281,waddan,29.1614,16.139,73.24,18,100,14.23,LY,1612729985
282,prince rupert,54.3161,-130.3201,33.8,60,1,12.66,CA,1612729488
283,ponte,41.4706,-8.3299,55.4,100,90,20.71,PT,1612729985
284,noumea,-22.2763,166.4572,78.01,94,0,2.3,NC,1612729985
285,aksu,41.1231,80.2644,28.6,84,94,0.31,CN,1612729985
286,ocampo,21.65,-101.5,73.99,20,0,15.93,MX,1612729985
287,sarhari,26.0977,68.4786,59.0,72,0,6.04,PK,1612729985
288,castro,-24.7911,-50.0119,75.11,54,0,3.2,BR,1612729697
289,laizhou,37.1717,119.9214,24.96,87,0,2.8,CN,1612729985
290,brigantine,39.4101,-74.3646,36.0,93,90,16.11,US,1612729985
291,siderno,38.2779,16.302,59.0,82,75,13.8,IT,1612729985
292,marawi,7.9986,124.2928,75.0,96,100,3.0,PH,1612729985
293,sungaipenuh,-2.0833,101.3833,63.88,84,97,2.84,ID,1612729986
294,isangel,-19.55,169.2667,78.8,83,20,6.29,VU,1612729986
295,khilok,51.3674,110.4676,2.62,88,25,2.89,RU,1612729986
296,danielskuil,-28.1887,23.5395,75.52,45,70,8.9,ZA,1612729986
297,san vicente,-26.6167,-54.1333,82.54,31,0,5.5,AR,1612729986
298,manzhouli,49.6,117.4333,-11.38,82,0,3.71,CN,1612729986
299,jacqueville,5.2052,-4.4146,82.4,89,20,9.22,CI,1612729986
300,presidencia roque saenz pena,-26.7852,-60.4388,92.64,18,0,8.16,AR,1612729986
301,hamilton,39.1834,-84.5333,24.8,26,1,8.05,US,1612729986
302,ancud,-41.8697,-73.8203,82.4,30,0,5.75,CL,1612729986
303,belyy yar,53.6039,91.3903,6.8,85,40,4.74,RU,1612729986
304,tigil,57.8,158.6667,26.37,94,1,19.73,RU,1612729986
305,tadine,-21.55,167.8833,78.87,79,69,3.31,NC,1612729987
306,vao,-22.6667,167.4833,77.02,83,79,1.88,NC,1612729987
307,emba,48.8264,58.1442,5.43,93,96,14.45,KZ,1612729987
308,burley,42.5357,-113.7928,42.8,36,1,14.97,US,1612729761
309,port hedland,-20.3167,118.5667,75.2,83,36,8.05,AU,1612729986
310,hofn,64.2539,-15.2082,35.85,92,100,19.06,IS,1612729524
311,pevek,69.7008,170.3133,-7.65,86,0,0.96,RU,1612729987
312,columbus,39.9612,-82.9988,21.0,58,20,8.05,US,1612729856
313,rawson,-43.3002,-65.1023,61.48,48,9,12.12,AR,1612729365
314,savannah bight,16.45,-85.85,82.4,83,20,10.25,HN,1612729987
315,ransang,8.9603,117.5828,78.01,82,100,5.7,PH,1612729987
316,altea,38.5989,-0.0514,57.99,53,36,5.99,ES,1612729987
317,tarsus,36.9188,34.8784,57.2,94,40,0.96,TR,1612729987
318,lagoa,39.05,-27.9833,57.92,74,100,19.51,PT,1612729224
319,huntsville,34.7304,-86.5861,36.0,87,90,9.22,US,1612729700
320,nome,64.5011,-165.4064,-6.0,84,1,4.07,US,1612729988
321,gambela,8.25,34.5833,79.21,22,1,1.5,ET,1612729988
322,zhigansk,66.7697,123.3711,-32.13,79,21,9.4,RU,1612729636
323,khalkhal,37.6189,48.5258,34.79,85,0,3.6,IR,1612729988
324,marsh harbour,26.5412,-77.0636,77.43,81,9,14.81,BS,1612729988
325,kalevala,65.2,31.1667,8.65,95,99,5.39,RU,1612729988
326,klembivka,48.3904,28.4109,12.99,86,100,15.75,UA,1612729988
327,zhigalovo,54.8097,105.1578,12.49,91,85,2.08,RU,1612729988
328,sitka,57.0531,-135.33,33.8,47,1,5.75,US,1612729226
329,gamba,-2.65,10.0,78.69,87,100,3.89,GA,1612729988
330,beyneu,45.3167,55.2,26.94,88,77,14.5,KZ,1612729988
331,aykhal,66.0,111.5,-25.17,83,95,5.17,RU,1612729989
332,raudeberg,61.9875,5.1352,25.0,56,0,6.06,NO,1612729989
333,coolum beach,-26.5333,153.1,77.0,97,85,13.38,AU,1612729989
334,ambon,-3.6954,128.1814,82.99,88,98,4.65,ID,1612729648
335,qingdao,36.0986,120.3719,30.0,80,0,2.24,CN,1612729689
336,deputatskiy,69.3,139.9,-28.98,86,0,1.12,RU,1612729251
337,jaypur,18.85,82.5833,57.07,59,92,3.67,IN,1612729864
338,boende,-0.2167,20.8667,76.41,74,92,1.5,CD,1612729989
339,rockland,41.1668,-74.0496,32.0,90,100,2.21,US,1612729837
340,bismarck,46.8083,-100.7837,-4.0,59,90,5.75,US,1612729946
341,xuddur,4.1213,43.8894,71.78,64,7,16.55,SO,1612729989
342,ugoofaaru,5.6667,73.0,81.57,76,31,11.18,MV,1612729575
343,san lorenzo,-25.3333,-57.5333,89.6,37,0,3.44,PY,1612729989
344,irapuato,20.6833,-101.35,77.0,24,0,10.0,MX,1612729989
345,la ronge,55.1001,-105.2842,-27.4,51,60,5.75,CA,1612729439
346,barguzin,53.6167,109.6167,6.13,89,98,2.64,RU,1612729990
347,yumen,40.2833,97.2,27.12,74,56,6.49,CN,1612729990
348,zyryanka,65.75,150.85,-17.79,85,100,18.19,RU,1612729990
349,asau,46.4333,26.4,30.0,74,100,2.77,RO,1612729990
350,freetown,8.484,-13.2299,84.2,70,75,9.22,SL,1612729990
351,lata,40.1629,-8.3327,55.99,94,100,1.99,PT,1612729990
352,edson,53.5835,-116.4356,-11.2,70,1,2.3,CA,1612729813
353,burnie,-41.0667,145.9167,54.0,75,100,5.99,AU,1612729990
354,tilichiki,60.4667,166.1,10.56,97,100,15.37,RU,1612729990
355,pampa,35.5362,-100.9599,48.2,57,1,12.66,US,1612729698
356,san luis,-33.295,-66.3356,90.34,20,5,5.86,AR,1612729363
357,saint anthony,45.0205,-93.218,-2.2,49,1,5.75,US,1612729249
358,zvishavane,-20.3267,30.0665,69.48,89,100,6.53,ZW,1612729990
359,katubao,5.8892,124.8294,78.76,76,100,2.51,PH,1612729991
360,kodiak,57.79,-152.4072,26.6,74,1,4.61,US,1612729991
361,upernavik,72.7868,-56.1549,18.34,79,2,2.84,GL,1612729991
362,tautira,-17.7333,-149.15,86.0,62,20,5.75,PF,1612729991
363,wanning,18.8003,110.3967,67.96,91,29,3.47,CN,1612729991
364,thessalon,46.2501,-83.5666,12.2,67,40,11.5,CA,1612729991
365,constantine,36.365,6.6147,44.6,81,40,6.91,DZ,1612729991
366,khipro,25.8285,69.3772,61.11,32,0,6.62,PK,1612729991
367,mitsamiouli,-11.3847,43.2844,83.32,75,98,8.97,KM,1612729610
368,college,64.8569,-147.8028,-9.99,75,20,4.61,US,1612729991
369,hobyo,5.3505,48.5268,77.79,78,1,19.77,SO,1612729991
370,maneromango,-7.1988,38.7848,82.4,83,75,13.8,TZ,1612729991
371,broome,42.2506,-75.833,28.0,74,90,8.05,US,1612729992
372,marsa matruh,31.3525,27.2453,57.2,82,0,5.75,EG,1612729992
373,boyuibe,-20.4167,-63.2833,91.4,33,40,4.79,BO,1612729992
374,charleston,32.7766,-79.9309,48.2,76,90,14.97,US,1612729128
375,dryden,49.7833,-92.7503,-14.8,53,1,18.41,CA,1612729992
376,iskilip,40.7353,34.4739,49.3,50,99,3.8,TR,1612729992
377,balabac,7.9868,117.0645,80.64,82,97,10.74,PH,1612729992
378,batayurt,43.3194,46.6854,32.47,95,100,5.23,RU,1612729992
379,oga,46.4631,10.347,51.01,93,75,9.22,IT,1612729992
380,fergus falls,46.283,-96.0776,-11.2,64,1,6.91,US,1612729992
381,funadhoo,6.15,73.2667,81.21,75,38,9.04,MV,1612729992
382,grindavik,63.8424,-22.4338,33.8,64,0,16.11,IS,1612729993
383,molango,20.7833,-98.7167,62.96,61,0,7.18,MX,1612729993
384,north bend,43.4065,-124.2243,48.2,71,90,6.91,US,1612729993
385,leningradskiy,69.3833,178.4167,-14.24,81,0,6.73,RU,1612729642
386,yurga,55.7231,84.8861,13.28,93,91,12.1,RU,1612729993
387,faya,18.3851,42.4509,57.2,41,0,3.44,SA,1612729993
388,carnarvon,-24.8667,113.6333,75.2,100,40,6.91,AU,1612729993
389,praia da vitoria,38.7333,-27.0667,57.2,77,40,16.24,PT,1612729495
390,ixtapa,20.7,-105.2,75.2,69,20,12.66,MX,1612729818
391,ferme-neuve,46.7001,-75.4493,23.0,63,100,5.75,CA,1612729993
392,cortez,37.3489,-108.5859,50.0,22,1,9.22,US,1612729993
393,lasa,46.6166,10.7002,39.2,100,90,0.69,IT,1612729921
394,rundu,-17.9333,19.7667,70.41,90,100,5.32,NA,1612729994
395,zhoucheng,35.9122,116.3117,31.19,79,38,1.95,CN,1612729994
396,athboy,53.6186,-6.9206,37.99,69,75,20.71,IE,1612729994
397,norman wells,65.282,-126.8329,-22.0,76,40,2.3,CA,1612729994
398,vodnyy,63.5046,53.4095,-22.54,85,100,10.22,RU,1612729994
399,arman,59.7,150.1667,11.32,84,100,18.05,RU,1612729929
400,nanchital,18.0667,-94.4,78.8,73,75,11.5,MX,1612729808
401,kirensk,57.7853,108.1119,23.2,97,100,10.83,RU,1612729994
402,vuktyl,63.8567,57.3094,-23.35,86,100,8.97,RU,1612729994
403,khromtau,50.2503,58.4347,-5.35,92,93,17.76,KZ,1612729994
404,caravelas,-17.7125,-39.2481,76.82,90,100,8.61,BR,1612729994
405,moerai,-22.4333,-151.3333,80.96,73,62,10.07,PF,1612729995
406,belfast,54.5833,-5.9333,35.6,64,90,18.41,GB,1612729796
407,yining,29.0361,114.5636,51.04,85,100,5.48,CN,1612729995
408,ampanihy,-24.7,44.75,74.73,90,0,6.6,MG,1612729995
409,flagstaff,35.1981,-111.6513,59.0,15,1,9.22,US,1612729995
410,ahuimanu,21.4447,-157.8378,75.2,46,20,3.44,US,1612729995
411,sayat,38.7839,63.8803,48.2,87,88,4.61,TM,1612729995
412,beringovskiy,63.05,179.3167,-0.58,88,100,14.03,RU,1612729409
413,praia,14.9215,-23.5087,69.8,64,40,21.85,CV,1612729995
414,kununurra,-15.7667,128.7333,78.8,100,90,3.71,AU,1612729326
415,surt,31.2089,16.5887,70.05,28,100,17.58,LY,1612729995
416,san cristobal,7.7669,-72.225,86.0,54,40,8.05,VE,1612729581
417,haverfordwest,51.8017,-4.9691,37.0,68,12,21.99,GB,1612729996
418,coquimbo,-29.9533,-71.3436,68.0,60,0,13.8,CL,1612729110
419,rabak,13.1809,32.74,69.3,24,0,11.95,SD,1612729996
420,portland,45.5234,-122.6762,48.0,71,90,8.05,US,1612729383
421,iberia,29.9502,-91.7507,59.0,55,1,6.91,US,1612729996
422,aripuana,-9.1667,-60.6333,76.12,89,99,1.77,BR,1612729996
423,hambantota,6.1241,81.1185,77.31,81,4,16.69,LK,1612729447
424,albert town,18.2943,-77.5424,86.0,58,20,16.11,JM,1612729996
425,kaeo,-35.1,173.7833,70.0,75,31,7.0,NZ,1612729996
426,isawa,35.65,138.6333,36.0,58,9,1.25,JP,1612729996
427,adeje,28.1227,-16.726,64.99,68,75,4.61,ES,1612729996
428,oksbol,55.6268,8.2876,28.4,74,75,13.8,DK,1612729997
429,iki-burul,45.8208,44.6472,17.6,67,100,8.95,RU,1612729997
430,yatou,37.15,122.3833,27.14,83,0,12.5,CN,1612729997
431,hirara,24.8,125.2833,68.77,69,60,10.13,JP,1612729997
432,redcliffe,-27.2307,153.0973,75.2,69,75,6.91,AU,1612729997
433,evensk,61.95,159.2333,17.8,85,100,34.94,RU,1612729405
434,la rioja,42.25,-2.5,44.6,87,90,6.91,ES,1612729997
435,kommunisticheskiy,61.6789,64.4819,-13.07,90,100,8.61,RU,1612729997
436,birjand,32.8663,59.2211,44.6,24,0,6.91,IR,1612729637
437,dauphin,51.1494,-100.0502,-18.4,57,1,18.41,CA,1612729944
438,caernarfon,53.1413,-4.2702,35.6,55,75,18.41,GB,1612729997
439,constitucion,-35.3333,-72.4167,65.61,72,3,8.43,CL,1612729856
440,korla,41.7597,86.1469,33.01,75,85,7.16,CN,1612729998
441,barmer,25.75,71.3833,57.45,35,0,1.48,IN,1612729998
442,bjornevatn,69.6672,29.9847,21.2,93,75,20.71,NO,1612729998
443,plaster rock,46.9065,-67.39,23.0,50,20,10.36,CA,1612729998
444,makakilo city,21.3469,-158.0858,77.0,41,1,5.75,US,1612729998
445,bukachacha,52.9833,116.9167,-15.38,86,76,1.92,RU,1612729998
446,suhut,38.5311,30.5458,48.31,56,100,7.31,TR,1612729998
447,hibbing,47.4272,-92.9377,-9.4,41,1,8.05,US,1612729994
448,sangmelima,2.9333,11.9833,72.23,80,90,3.65,CM,1612729998
449,cabo san lucas,22.8909,-109.9124,75.99,60,20,5.75,MX,1612729954
450,aksarka,66.5606,67.7975,-17.46,88,100,29.46,RU,1612729989
451,chilca,-12.5211,-76.7372,77.0,69,75,11.5,PE,1612729998
452,kloulklubed,7.0419,134.2556,77.0,100,90,8.05,PW,1612729598
453,zaraza,9.3503,-65.3245,89.65,44,100,5.73,VE,1612729999
454,bambanglipuro,-7.95,110.2833,75.85,88,89,5.14,ID,1612729999
455,upata,8.0086,-62.3989,88.0,60,99,5.99,VE,1612729999
456,talnakh,69.4865,88.3972,-20.13,74,19,2.75,RU,1612729999
457,araouane,18.9048,-3.5265,66.74,24,67,9.51,ML,1612729999
458,harper,4.375,-7.7169,79.74,87,100,6.11,LR,1612729791
459,de aar,-30.6497,24.0123,72.64,52,17,19.62,ZA,1612729999
460,cordoba,-31.4135,-64.1811,91.0,51,20,11.5,AR,1612729963
461,paita,-5.0892,-81.1144,79.57,64,0,15.61,PE,1612729999
462,meulaboh,4.1363,96.1285,76.98,86,54,4.07,ID,1612729584
463,locri,38.2414,16.2623,59.0,82,75,13.8,IT,1612729999
464,aparecida do taboado,-20.0867,-51.0936,81.66,53,13,7.49,BR,1612729999
465,halifax,44.6453,-63.5724,30.2,55,100,8.05,CA,1612729743
466,usinsk,65.9939,57.5281,-18.67,87,100,16.2,RU,1612730000
467,margate,51.3813,1.3862,30.99,84,100,7.0,GB,1612730000
468,coromandel,-18.4733,-47.2003,71.53,90,99,3.06,BR,1612730000
469,boldumsaz,42.1282,59.671,46.4,71,0,9.22,TM,1612730000
470,laguna,38.421,-121.4238,63.0,55,1,4.29,US,1612729473
471,larsnes,62.2028,5.5773,19.99,84,0,5.93,NO,1612730000
472,sterling,39.0062,-77.4286,39.99,81,75,6.91,US,1612729816
473,acapulco,16.8634,-99.8901,86.0,62,20,9.22,MX,1612729936
474,lashio,22.9333,97.75,51.06,99,6,1.74,MM,1612730000
475,mastung,29.7994,66.845,49.62,34,0,3.62,PK,1612730000
476,udachnyy,66.4167,112.4,-26.23,83,95,5.88,RU,1612730000
477,greytown,-29.0642,30.5928,65.41,98,92,1.41,ZA,1612730000
478,parabel,58.6978,81.4825,9.55,93,100,13.56,RU,1612730001
479,saiha,22.4833,92.9667,49.98,79,0,3.36,IN,1612730001
480,kandrian,-6.2167,149.55,80.46,80,32,10.0,PG,1612730001
481,anadyr,64.75,177.4833,10.4,56,100,8.95,RU,1612729777
482,angoche,-16.2325,39.9086,80.26,84,53,6.85,MZ,1612730001
483,tual,-5.6667,132.75,83.5,78,100,19.42,ID,1612730001
484,jasper,37.2001,-94.3502,24.01,93,90,6.91,US,1612730001
485,karratha,-20.7377,116.8463,77.63,72,3,7.78,AU,1612730001
486,hami,42.8,93.45,31.28,77,70,3.69,CN,1612729865
487,vaihingen,48.7314,9.1097,39.0,87,90,8.05,DE,1612730001
488,shingu,33.7333,135.9833,45.54,69,0,10.47,JP,1612730001
489,touros,-5.1989,-35.4608,84.2,70,40,16.11,BR,1612730001
490,columbia,34.0007,-81.0348,55.99,54,40,6.91,US,1612729958
491,xicotencatl,23.0167,-98.8833,82.99,22,0,10.0,MX,1612730002
492,san quintin,30.4833,-115.95,65.01,56,0,10.47,MX,1612730002
493,baculin,7.4525,126.5842,76.35,88,100,6.76,PH,1612730002
494,kenora,49.8167,-94.4337,-16.01,58,1,10.36,CA,1612730002
495,mnogovershinnyy,53.9353,139.9242,-3.87,93,100,11.01,RU,1612730002
496,martapura,-3.4167,114.85,77.0,100,90,2.3,ID,1612730002
497,luanda,-8.8368,13.2343,78.8,83,40,6.91,AO,1612729989
498,chicama,-7.8447,-79.1469,73.4,78,0,14.97,PE,1612730002
499,akhisar,38.9185,27.8401,54.39,57,98,3.15,TR,1612730002
500,mayumba,-3.432,10.6554,80.15,85,98,5.7,GA,1612730002
501,soe,-9.8607,124.284,65.8,98,100,4.09,ID,1612730002
502,caetite,-14.0694,-42.475,71.08,89,100,5.35,BR,1612730002
503,verkhnyaya inta,65.9811,60.3094,-11.97,90,100,8.72,RU,1612730003
504,ginir,7.1333,40.7,64.09,46,100,3.38,ET,1612730003
505,bratskoye,43.6536,44.8889,26.6,100,100,11.18,RU,1612730003
506,darasun,51.6667,114.0,-16.6,76,87,1.39,RU,1612730003
507,lodwar,3.1191,35.5973,84.88,38,70,3.11,KE,1612729886
508,matara,5.9485,80.5353,74.19,90,0,4.27,LK,1612730003
509,lethem,3.3803,-59.7968,93.69,40,87,11.36,GY,1612730003
510,serov,59.6033,60.5787,-9.56,91,100,1.43,RU,1612729928
511,odienne,9.51,-7.5692,81.39,26,0,2.71,CI,1612730003
512,isperih,43.7167,26.8333,44.01,92,80,4.0,BG,1612730003
513,ilhabela,-23.7781,-45.3581,75.24,66,97,3.69,BR,1612730003
514,atambua,-9.1061,124.8925,74.44,89,100,3.09,ID,1612730004
515,saint-augustin,51.226,-58.6502,26.65,92,25,17.16,CA,1612729421
516,san jose,37.3394,-121.895,64.99,48,20,3.44,US,1612729819
517,san ignacio,17.1561,-89.0714,89.01,62,20,4.61,BZ,1612729618
518,kaoma,-14.7833,24.8,68.05,92,100,3.6,ZM,1612730004
519,adelaide,-34.9333,138.6,59.0,67,0,10.36,AU,1612729978
520,moose factory,51.2585,-80.6094,-5.8,64,90,13.8,CA,1612730004
521,alofi,-19.0595,-169.9187,82.4,83,40,10.36,NU,1612730004
522,macau,22.2006,113.5461,68.0,94,0,7.54,MO,1612730004
523,okhotsk,59.3833,143.3,12.94,88,100,22.26,RU,1612730004
524,san juan bautista,-14.0108,-75.7358,75.2,78,0,4.61,PE,1612730004
525,basco,20.4487,121.9702,73.96,83,99,23.0,PH,1612730004
526,am timan,11.0297,20.2827,68.45,22,54,5.19,TD,1612730004
527,xingyi,24.1877,102.817,47.82,97,100,1.68,CN,1612730005
528,bukama,-9.2,25.85,71.06,94,100,1.77,CD,1612730005
529,safaga,26.7292,33.9365,62.6,67,0,6.69,EG,1612730005
530,verkhoyansk,67.5447,133.385,-33.03,81,0,1.3,RU,1612730005
531,champerico,14.3,-91.9167,91.4,49,40,9.22,GT,1612730005
532,saint-joseph,-21.3667,55.6167,80.6,74,0,3.44,RE,1612730005
533,bella union,-30.2752,-57.6007,86.74,39,0,5.88,UY,1612730005
534,cabedelo,-6.9811,-34.8339,84.2,74,75,11.5,BR,1612730005
535,vanavara,60.34,102.2797,26.82,98,100,8.21,RU,1612729460
536,mercedes,-34.6515,-59.4307,90.0,42,1,1.01,AR,1612730005
537,huarmey,-10.0681,-78.1522,76.15,64,95,10.25,PE,1612730005
538,lima,-12.0432,-77.0282,77.0,69,75,11.5,PE,1612729420
539,stornoway,58.2093,-6.3865,35.6,69,90,16.11,GB,1612730005
540,maroantsetra,-15.4333,49.7333,76.62,86,100,3.83,MG,1612730005
541,alasehir,38.3508,28.5172,55.6,49,94,5.46,TR,1612730006
542,zhanaozen,43.3,52.8,31.59,89,24,13.69,KZ,1612729527
543,chiang kham,19.5233,100.3,71.01,99,85,3.44,TH,1612730006
544,galesong,-5.3166,119.3661,73.4,100,20,2.3,ID,1612730006
545,altamira,-3.2033,-52.2064,77.0,94,75,4.61,BR,1612730006
546,tonj,7.2737,28.6822,69.44,22,100,5.37,SS,1612730006
547,vila franca do campo,37.7167,-25.4333,57.99,82,75,10.36,PT,1612729443
548,kismayo,-0.3582,42.5454,77.22,81,0,17.22,SO,1612730006
549,mumford,5.2618,-0.759,81.16,85,75,13.53,GH,1612730006
550,kefamenanu,-9.4467,124.4781,70.56,88,100,1.95,ID,1612730006
551,temir,49.1414,57.13,-1.61,91,94,12.55,KZ,1612730006
552,zyryanskoye,56.8306,86.6258,15.91,93,99,13.2,RU,1612730006
553,svetlogorsk,52.6333,29.7333,6.51,92,100,4.79,BY,1612730007
554,lafia,8.4833,8.5167,81.86,15,100,2.28,NG,1612730007
555,camacha,33.0833,-16.3333,60.8,82,75,16.11,PT,1612729463
556,nanchang,28.6833,115.8833,54.18,81,100,13.38,CN,1612730007
557,kresttsy,58.2452,32.5165,4.71,95,91,3.38,RU,1612730007
558,jackson,42.4165,-122.8345,37.4,81,90,1.12,US,1612730007
559,alexandria,31.2156,29.9553,59.0,82,20,5.75,EG,1612730007
560,verkh-usugli,52.7,115.1667,-11.09,87,68,1.52,RU,1612730007
561,dicabisagan,17.0818,122.4157,73.56,85,12,3.15,PH,1612730007
562,marystown,47.1666,-55.1483,29.91,90,36,27.72,CA,1612730007
563,ayan,56.45,138.1667,-5.85,85,100,21.5,RU,1612729928
564,katsuura,35.1333,140.3,42.8,52,20,1.14,JP,1612730007
565,lithgow,-33.4833,150.15,53.01,43,90,1.99,AU,1612730007
566,osoyoos,49.0331,-119.4524,35.6,48,66,3.44,CA,1612730008
567,smolenka,52.1352,113.4974,-16.6,76,98,1.99,RU,1612730008
