,City,Lat,Lng,Max Temp,Humidity,Cloudiness,Wind Speed,Country,Date
0,mackay,-21.15,149.2,91.0,62,40,9.22,AU,1612662071
1,bluff,-46.6,168.3333,61.45,71,0,7.96,NZ,1612662046
2,jawhar,2.7809,45.5005,69.46,91,0,7.14,SO,1612662072
3,vestmanna,62.1564,-7.1664,33.8,75,75,18.41,FO,1612662051
4,cidreira,-30.1811,-50.2056,67.93,75,71,6.02,BR,1612662048
5,sao filipe,14.8961,-24.4956,69.31,74,18,14.97,CV,1612662072
6,kargat,55.1956,80.2811,27.14,94,100,19.33,RU,1612662072
7,thompson,55.7435,-97.8558,-27.4,68,40,12.66,CA,1612661948
8,zhigansk,66.7697,123.3711,-36.47,81,100,13.58,RU,1612662072
9,mataura,-46.1927,168.8643,81.88,46,13,1.63,NZ,1612661796
10,port elizabeth,-33.918,25.5701,64.0,88,46,1.01,ZA,1612662014
11,leningradskiy,69.3833,178.4167,-10.28,74,0,5.77,RU,1612661946
12,busselton,-33.65,115.3333,62.01,96,100,1.99,AU,1612662017
13,zhireken,52.8249,117.3076,-8.43,83,93,0.98,RU,1612662072
14,tucuma,-0.1833,-50.05,76.6,92,100,4.99,BR,1612662046
15,jamestown,42.097,-79.2353,17.6,49,1,6.91,US,1612661745
16,pisco,-13.7,-76.2167,71.6,83,75,9.22,PE,1612661916
17,ico,-6.4011,-38.8622,78.39,63,0,7.25,BR,1612662072
18,tarija,-21.5355,-64.7296,61.84,83,100,3.91,BO,1612662073
19,constitucion,-35.3333,-72.4167,57.38,87,32,4.29,CL,1612661805
20,nilai,2.8169,101.7956,84.99,74,20,6.91,MY,1612662073
21,vaini,-21.2,-175.2,84.2,84,75,9.22,TO,1612661765
22,kurchum,48.5722,83.6542,20.35,93,100,1.43,KZ,1612662073
23,hermanus,-34.4187,19.2345,66.99,93,98,1.01,ZA,1612662024
24,tiksi,71.6872,128.8694,-25.76,84,100,5.35,RU,1612661791
25,bredasdorp,-34.5322,20.0403,66.2,88,98,3.44,ZA,1612662056
26,kholodnyy,62.7167,147.95,-15.43,83,99,2.84,RU,1612662073
27,butaritari,3.0707,172.7902,80.98,81,71,20.78,KI,1612661939
28,okhotsk,59.3833,143.3,2.28,86,94,20.4,RU,1612662073
29,codrington,-38.2667,141.9667,60.4,64,100,12.3,AU,1612662028
30,new norfolk,-42.7826,147.0587,68.0,47,39,4.0,AU,1612662029
31,lianzhou,24.7811,112.3825,75.42,41,0,2.08,CN,1612662073
32,rikitea,-23.1203,-134.9692,78.78,69,73,10.56,PF,1612662045
33,manokwari,-0.8667,134.0833,78.15,86,100,2.98,ID,1612661994
34,saint george,37.1041,-113.5841,57.2,17,1,11.5,US,1612662074
35,pangnirtung,66.1451,-65.7125,23.5,80,76,3.53,CA,1612662074
36,avarua,-21.2078,-159.775,86.0,66,17,10.36,CK,1612661879
37,dikson,73.5069,80.5464,-27.47,87,90,9.57,RU,1612661977
38,takapau,-40.0333,176.35,75.0,45,71,5.01,NZ,1612662074
39,kodiak,57.79,-152.4072,37.4,65,1,10.36,US,1612661963
40,saskylakh,71.9167,114.0833,-42.0,78,24,7.58,RU,1612661769
41,tautira,-17.7333,-149.15,86.0,62,20,12.66,PF,1612662022
42,kyzyl,51.7,94.45,-0.98,90,37,0.78,RU,1612662074
43,wyndham,37.6985,-77.6125,45.0,61,20,4.23,US,1612662074
44,barreiros,-8.8183,-35.1864,76.5,87,87,6.11,BR,1612662074
45,banjar,-8.19,114.9675,82.4,83,20,2.3,ID,1612662074
46,aripuana,-9.1667,-60.6333,72.14,99,100,2.19,BR,1612662075
47,sandpoint,48.2766,-116.5533,34.0,93,75,1.86,US,1612662075
48,albany,42.6001,-73.9662,26.01,46,0,2.91,US,1612661801
49,tazovskiy,67.4667,78.7,-25.15,86,64,10.31,RU,1612662075
50,padang,-0.9492,100.3543,78.8,73,20,2.3,ID,1612662075
51,liverpool,53.4106,-2.9779,39.2,81,75,19.57,GB,1612661912
52,qaanaaq,77.484,-69.3632,11.84,88,100,8.12,GL,1612662053
53,laguna,38.421,-121.4238,62.6,48,1,4.61,US,1612661942
54,puerto ayora,-0.7393,-90.3518,77.0,94,66,6.76,EC,1612661771
55,atuona,-9.8,-139.0333,79.99,80,73,18.21,PF,1612661767
56,comal,29.8169,-98.3003,57.99,35,0,10.0,US,1612662075
57,coquimbo,-29.9533,-71.3436,60.8,82,0,6.91,CL,1612662075
58,berlevag,70.8578,29.0864,26.29,95,100,26.44,NO,1612661985
59,bengkulu,-3.8004,102.2655,83.34,63,84,4.12,ID,1612662023
60,barrow,71.2906,-156.7887,-5.8,77,90,14.97,US,1612661774
61,tasiilaq,65.6145,-37.6368,33.8,55,82,28.77,GL,1612661781
62,jiujiang,29.7333,115.9833,59.34,56,60,2.84,CN,1612662076
63,bela,25.9333,81.9833,49.84,69,0,4.41,IN,1612662076
64,ushuaia,-54.8,-68.3,50.0,76,75,12.66,AR,1612661942
65,buala,-8.145,159.5921,77.7,82,100,4.92,SB,1612662076
66,east london,-33.0153,27.9116,72.7,87,75,17.58,ZA,1612661891
67,santa rosa,14.3122,121.1114,87.01,78,20,2.3,PH,1612662076
68,geraldton,-28.7667,114.6,71.6,78,90,23.02,AU,1612661887
69,alofi,-19.0595,-169.9187,86.0,70,100,12.66,NU,1612661971
70,castro,-24.7911,-50.0119,61.34,92,44,10.78,BR,1612662051
71,lata,40.1629,-8.3327,50.0,83,71,1.99,PT,1612662076
72,hilo,19.7297,-155.09,78.8,53,75,5.75,US,1612661788
73,yulara,-25.2406,130.9889,86.0,23,0,17.27,AU,1612662076
74,moron,-34.6534,-58.6198,81.0,54,0,3.29,AR,1612662076
75,mar del plata,-38.0023,-57.5575,64.0,77,20,11.5,AR,1612662076
76,kapaa,22.0752,-159.319,73.99,49,40,6.91,US,1612661797
77,nizhniy baskunchak,48.2198,46.8311,25.29,83,23,13.53,RU,1612662076
78,longyearbyen,78.2186,15.6401,15.8,86,75,12.66,SJ,1612661811
79,ucluelet,48.9329,-125.5528,44.6,81,20,14.97,CA,1612662077
80,angoche,-16.2325,39.9086,77.25,90,100,4.38,MZ,1612662077
81,faanui,-16.4833,-151.75,82.53,68,0,10.47,PF,1612662077
82,cairns,-16.9167,145.7667,90.0,79,99,5.75,AU,1612662077
83,gualaquiza,-3.4,-78.55,65.35,90,90,1.36,EC,1612662077
84,benguela,-12.5763,13.4055,72.55,85,100,1.59,AO,1612662077
85,bonnyville,54.2668,-110.735,-16.6,63,20,3.44,CA,1612661949
86,nago,26.5881,127.9761,69.8,88,40,6.91,JP,1612661708
87,hutchinson,38.0608,-97.9298,15.8,73,75,6.91,US,1612662066
88,nicoya,10.1483,-85.452,82.4,65,0,2.3,CR,1612662077
89,tuntum,-5.2581,-44.6489,74.12,91,83,2.59,BR,1612662077
90,sosnovo-ozerskoye,52.5249,111.5418,-6.0,90,100,5.01,RU,1612661851
91,severo-kurilsk,50.6789,156.125,22.71,93,93,21.92,RU,1612661948
92,gilgit,35.9221,74.3087,29.08,50,0,2.82,PK,1612662078
93,madimba,-10.4,40.3333,75.2,100,20,9.22,TZ,1612662078
94,katsuura,35.1333,140.3,55.0,54,20,4.61,JP,1612661978
95,katherine,-14.4667,132.2667,75.2,94,90,6.91,AU,1612662078
96,smithers,54.7804,-127.1743,24.8,93,90,3.44,CA,1612661994
97,gushikawa,26.3544,127.8686,69.8,88,40,6.91,JP,1612661961
98,tuktoyaktuk,69.4541,-133.0374,-16.6,76,90,19.57,CA,1612662024
99,magadan,59.5667,150.8,16.61,87,100,13.85,RU,1612662078
100,ouallam,14.3188,2.0866,74.05,20,97,7.61,NE,1612661994
101,saint anthony,45.0205,-93.218,-5.8,59,1,13.8,US,1612661866
102,aykhal,66.0,111.5,-31.04,82,3,8.86,RU,1612662079
103,karratha,-20.7377,116.8463,83.03,48,0,9.19,AU,1612661871
104,lorengau,-2.0226,147.2712,86.38,66,100,5.55,PG,1612661956
105,svetlogorsk,52.6333,29.7333,0.09,93,3,5.23,BY,1612661967
106,vardo,70.3705,31.1107,26.91,92,100,29.37,NO,1612662079
107,lavrentiya,65.5833,-171.0,-9.98,79,0,1.74,RU,1612662079
108,monywa,22.1167,95.1333,69.04,53,0,5.91,MM,1612662079
109,kungurtug,50.5994,97.5228,3.79,86,0,1.83,RU,1612662052
110,bac lieu,9.285,105.7244,82.08,65,45,13.96,VN,1612662079
111,paamiut,61.994,-49.6678,25.12,81,50,3.51,GL,1612661950
112,taltal,-25.4,-70.4833,63.73,75,3,4.47,CL,1612662007
113,leh,34.1667,77.5833,5.47,48,0,2.62,IN,1612661964
114,kenai,60.5544,-151.2583,18.0,92,90,4.61,US,1612662079
115,harper,4.375,-7.7169,79.02,88,0,8.81,LR,1612662080
116,la concordia,13.1953,-86.1667,67.12,86,29,2.35,NI,1612662080
117,ribeira grande,38.5167,-28.7,61.14,88,95,21.88,PT,1612662052
118,barcelos,41.5388,-8.6151,42.01,93,0,4.14,PT,1612662080
119,buin,-33.7333,-70.75,70.0,82,0,9.22,CL,1612662080
120,ketchikan,55.3422,-131.6461,37.4,80,90,8.05,US,1612662080
121,vao,-22.6667,167.4833,78.03,80,0,5.46,NC,1612662023
122,lompoc,34.6391,-120.4579,60.8,63,1,9.22,US,1612661959
123,punta arenas,-53.15,-70.9167,51.8,66,0,17.27,CL,1612661939
124,yarmouth,41.7057,-70.2286,39.99,48,1,11.5,US,1612662080
125,kruisfontein,-34.0033,24.7314,64.0,88,1,1.01,ZA,1612661848
126,carnarvon,-24.8667,113.6333,84.2,100,40,13.8,AU,1612661950
127,lebu,-37.6167,-73.65,58.15,94,83,1.86,CL,1612661943
128,berdychiv,49.8993,28.6024,15.42,87,97,5.88,UA,1612662080
129,marzuq,14.4,46.4667,55.47,71,0,1.7,YE,1612662080
130,narsaq,60.9167,-46.05,23.41,81,100,4.34,GL,1612661960
131,dovers,12.8833,-61.1833,78.78,76,100,19.26,VC,1612662080
132,rawson,-43.3002,-65.1023,58.26,69,32,19.86,AR,1612662050
133,hasaki,35.7333,140.8333,57.0,54,20,4.61,JP,1612662051
134,ola,59.5833,151.2833,17.8,88,100,14.56,RU,1612662081
135,gwanda,-20.9333,29.0,67.55,95,99,4.94,ZW,1612662081
136,husavik,66.0449,-17.3389,33.8,69,75,5.75,IS,1612661948
137,bonito,-21.1211,-56.4819,66.52,75,0,3.27,BR,1612662081
138,kwekwe,-18.9281,29.8149,64.08,97,43,4.16,ZW,1612662081
139,hobart,-42.8794,147.3294,68.0,45,75,16.11,AU,1612661779
140,port alfred,-33.5906,26.891,68.0,87,33,5.01,ZA,1612661807
141,mahebourg,-20.4081,57.7,75.0,86,4,1.99,MU,1612662081
142,nikolskoye,59.7035,30.7861,10.4,85,90,20.13,RU,1612661965
143,agirish,61.9247,63.0231,-17.3,89,100,12.59,RU,1612661847
144,vikulovo,56.8167,70.6107,30.0,99,100,13.98,RU,1612662081
145,healdsburg,38.6105,-122.8692,64.4,45,20,6.91,US,1612662081
146,cape town,-33.9258,18.4232,70.0,83,20,11.5,ZA,1612662021
147,jiwani,25.05,61.7417,64.53,63,0,6.08,PK,1612662081
148,yellowknife,62.456,-114.3525,-40.0,74,1,3.44,CA,1612661901
149,douglas,41.3,-96.167,3.99,71,1,3.44,US,1612661806
150,balangiga,11.1097,125.3875,81.73,82,100,13.42,PH,1612662082
151,mchinji,-13.7984,32.8802,62.89,96,100,1.9,MW,1612662082
152,okahandja,-21.9833,16.9167,66.99,71,0,3.11,NA,1612662082
153,archidona,37.0965,-4.3887,52.0,73,100,1.99,ES,1612662082
154,mount isa,-20.7333,139.5,78.8,94,75,9.22,AU,1612662082
155,nome,64.5011,-165.4064,17.6,73,90,4.61,US,1612662038
156,savinka,50.0785,47.0994,15.26,89,68,15.01,RU,1612662082
157,inhambane,-23.865,35.3833,76.26,88,93,6.69,MZ,1612662063
158,eyl,7.9803,49.8164,74.07,85,27,11.81,SO,1612661964
159,biala podlaska,52.0324,23.1165,6.6,94,99,9.19,PL,1612662083
160,rio gallegos,-51.6226,-69.2181,55.4,58,0,3.44,AR,1612662075
161,cordoba,-31.4135,-64.1811,75.0,88,0,6.91,AR,1612662005
162,zyryanka,65.75,150.85,-12.44,85,0,9.08,RU,1612661978
163,novo horizonte,-21.4681,-49.2208,70.14,64,1,2.62,BR,1612662083
164,oranjestad,12.524,-70.027,78.8,73,20,21.85,AW,1612661905
165,vokhtoga,58.8147,41.0461,-9.83,89,100,8.81,RU,1612662083
166,nhulunbuy,-12.2333,136.7667,84.2,70,75,13.8,AU,1612662083
167,clyde river,70.4692,-68.5914,-7.6,77,90,2.3,CA,1612662017
168,samarai,-10.6167,150.6667,86.45,68,51,4.09,PG,1612661677
169,cap malheureux,-19.9842,57.6142,75.0,86,0,1.99,MU,1612662015
170,upernavik,72.7868,-56.1549,18.97,75,0,4.59,GL,1612661655
171,zanjan,36.6736,48.4787,39.54,87,100,3.65,IR,1612662083
172,atar,20.5169,-13.0499,57.7,39,47,12.48,MR,1612661814
173,hithadhoo,-0.6,73.0833,81.3,75,61,12.77,MV,1612662084
174,namibe,-15.1961,12.1522,70.39,80,67,5.32,AO,1612662084
175,nova olinda do norte,-3.8881,-59.0942,75.34,96,100,2.35,BR,1612662084
176,gazli,40.1333,63.45,45.45,77,100,5.1,UZ,1612662084
177,beloha,-25.1667,45.05,73.99,95,23,3.09,MG,1612662084
178,coihaique,-45.5752,-72.0662,68.0,40,0,19.57,CL,1612662084
179,khatanga,71.9667,102.5,-35.28,78,0,8.55,RU,1612661850
180,torbay,47.6666,-52.7314,43.0,93,75,24.16,CA,1612661711
181,grindavik,63.8424,-22.4338,32.0,64,0,19.57,IS,1612661996
182,saint-philippe,-21.3585,55.7679,78.8,73,75,6.91,RE,1612662024
183,siparia,10.1333,-61.5,73.99,89,100,12.08,TT,1612662084
184,chokurdakh,70.6333,147.9167,-21.35,86,98,4.23,RU,1612661950
185,kauhajoki,62.4333,22.1833,17.01,92,90,5.75,FI,1612662084
186,mehamn,71.0357,27.8492,25.68,94,100,22.28,NO,1612662085
187,kahului,20.8947,-156.47,78.8,50,40,11.5,US,1612662075
188,bodden town,19.2833,-81.25,81.0,78,20,10.36,KY,1612662085
189,upington,-28.4478,21.2561,73.96,38,0,8.97,ZA,1612662085
190,ponta do sol,32.6667,-17.1,54.0,67,23,5.99,PT,1612662026
191,touros,-5.1989,-35.4608,77.0,88,20,4.61,BR,1612662085
192,vista,33.2,-117.2425,64.4,51,1,1.99,US,1612662085
193,podor,16.6527,-14.9587,64.62,32,99,11.65,MR,1612662085
194,njombe,-9.3333,34.7667,58.15,94,100,3.47,TZ,1612662085
195,jinchang,38.4953,102.1739,34.32,61,0,4.52,CN,1612662085
196,marion,39.7684,-86.1555,21.99,58,90,9.22,US,1612662085
197,owo,7.1962,5.5868,72.72,97,17,4.63,NG,1612662085
198,utete,-7.986,38.758,72.27,96,99,0.63,TZ,1612662086
199,sabang,5.8933,95.3214,82.54,75,13,18.12,ID,1612662086
200,cheyenne,41.14,-104.8203,26.01,74,90,14.97,US,1612661977
201,avdiyivka,48.1399,37.7426,20.05,87,100,10.58,UA,1612662086
202,shunyi,40.125,116.6453,39.0,32,0,6.71,CN,1612662086
203,pemangkat,1.1667,108.9667,81.14,80,52,4.07,ID,1612661968
204,macas,-2.3167,-78.1167,69.49,81,100,1.86,EC,1612662086
205,arraial do cabo,-22.9661,-42.0278,75.13,83,100,4.81,BR,1612662021
206,badiraguato,25.3667,-107.5167,69.8,56,20,6.91,MX,1612662086
207,la asuncion,11.0333,-63.8628,76.21,84,100,14.58,VE,1612662086
208,gat,31.61,34.7642,55.0,100,0,1.7,IL,1612662025
209,soe,-9.8607,124.284,77.36,76,84,9.08,ID,1612662086
210,keelung,25.1283,121.7419,75.2,73,20,10.36,TW,1612662086
211,bambous virieux,-20.3428,57.7575,75.0,86,3,1.99,MU,1612662086
212,kirakira,-10.4544,161.9205,79.56,86,100,8.79,SB,1612662017
213,abu samrah,35.3029,37.1841,48.7,74,0,4.74,SY,1612662014
214,dehloran,32.6941,47.2679,55.44,80,36,9.62,IR,1612662087
215,ilulissat,69.2167,-51.1,24.8,39,0,31.07,GL,1612662060
216,kahramanmaras,38.0,37.0,39.2,81,0,5.75,TR,1612662087
217,surman,32.7567,12.5716,71.22,24,100,12.44,LY,1612662087
218,chokwe,-24.5333,32.9833,72.1,93,95,2.77,MZ,1612662087
219,arroyos y esteros,-25.0667,-57.1,71.6,78,0,3.44,PY,1612662087
220,guerrero negro,27.9769,-114.0611,63.28,54,0,9.8,MX,1612662087
221,dudinka,69.4058,86.1778,-34.96,80,0,9.06,RU,1612661822
222,te anau,-45.4167,167.7167,75.9,38,0,5.68,NZ,1612662021
223,vaitape,-16.5167,-151.75,83.08,65,0,9.98,PF,1612662087
224,ixtapa,20.7,-105.2,72.0,78,40,5.75,MX,1612662043
225,necochea,-38.5473,-58.7368,60.01,81,2,11.56,AR,1612662087
226,ostrovnoy,68.0531,39.5131,8.29,92,100,10.18,RU,1612662019
227,ust-kuyga,70.0167,135.6,-27.47,82,100,4.7,RU,1612661979
228,hualmay,-11.0964,-77.6139,70.93,78,100,7.43,PE,1612662015
229,debre tabor,11.85,38.0167,45.23,57,100,3.56,ET,1612662088
230,salinas,36.6777,-121.6555,60.8,63,1,9.22,US,1612661838
231,berezovyy,51.6667,135.7,6.84,89,100,4.16,RU,1612662088
232,san rafael,-34.6177,-68.3301,80.35,31,0,10.92,AR,1612661837
233,chuy,-33.6971,-53.4616,66.58,90,0,8.77,UY,1612661953
234,yangjiang,21.85,111.9667,78.01,45,0,4.21,CN,1612662028
235,jumla,29.2747,82.1838,28.9,70,0,7.14,NP,1612662015
236,tromso,69.6496,18.957,26.6,86,75,3.44,NO,1612662088
237,waipawa,-41.4122,175.5153,66.0,72,89,8.05,NZ,1612662088
238,donghai,22.9459,115.642,66.0,76,0,6.55,CN,1612662088
239,georgetown,5.4112,100.3354,80.6,83,20,2.3,MY,1612661728
240,san juan,-31.5375,-68.5364,84.15,32,0,10.94,AR,1612661928
241,kalmunai,7.4167,81.8167,77.86,87,24,7.94,LK,1612661990
242,gamba,-2.65,10.0,78.24,87,100,5.37,GA,1612662089
243,ancud,-41.8697,-73.8203,63.0,51,0,11.5,CL,1612661992
244,luderitz,-26.6481,15.1594,67.42,70,0,22.7,NA,1612661727
245,caravelas,-17.7125,-39.2481,78.15,86,100,10.42,BR,1612662089
246,cherskiy,68.75,161.3,-2.88,81,0,3.31,RU,1612662089
247,tateyama,34.9833,139.8667,53.6,54,20,4.61,JP,1612662049
248,puerto escondido,15.85,-97.0667,80.6,74,75,4.61,MX,1612661834
249,turukhansk,65.8167,87.9833,-5.21,88,98,9.44,RU,1612661960
250,shama,33.6102,104.2852,37.04,65,100,2.01,CN,1612662089
251,cerritos,33.8583,-118.0648,68.0,59,1,4.61,US,1612662027
252,launceston,-41.45,147.1667,72.0,52,0,14.97,AU,1612661839
253,sept-iles,50.2001,-66.3821,26.6,74,99,11.5,CA,1612662090
254,straumen,63.8709,11.2999,27.0,85,0,6.91,NO,1612662090
255,yatou,37.15,122.3833,36.73,73,0,19.48,CN,1612662090
256,thanh hoa,19.8,105.7667,73.45,65,0,2.46,VN,1612661954
257,olkhovka,53.2115,60.6069,2.75,87,0,22.37,RU,1612662090
258,alice springs,-23.7,133.8833,87.01,26,4,14.97,AU,1612661851
259,vila velha,-20.3297,-40.2925,82.99,83,75,9.22,BR,1612662028
260,provideniya,64.3833,-173.3,1.45,87,2,7.29,RU,1612661826
261,bagotville,-28.9833,153.4167,89.6,58,99,8.05,AU,1612662090
262,bella union,-30.2752,-57.6007,69.87,54,0,4.07,UY,1612662090
263,grand forks,47.9417,-97.4337,-13.0,64,1,9.22,US,1612662090
264,shestakovo,56.4915,103.96,11.52,94,100,7.96,RU,1612662090
265,pokhvistnevo,53.6524,52.1274,-1.44,91,100,13.69,RU,1612662090
266,kokkola,63.8385,23.1307,17.01,85,40,2.3,FI,1612662090
267,estelle,29.8458,-90.1067,55.0,100,90,8.05,US,1612662091
268,kodinsk,58.6881,99.1844,17.83,96,100,6.85,RU,1612661982
269,ranau,5.9538,116.6641,84.2,74,20,1.14,MY,1612662091
270,ahipara,-35.1667,173.1667,69.75,63,100,2.64,NZ,1612661793
271,butka,56.7179,63.7866,16.14,95,100,16.44,RU,1612662091
272,walvis bay,-22.9575,14.5053,63.0,94,1,5.75,NA,1612662091
273,sosva,59.1766,61.8558,-8.32,91,100,11.32,RU,1612662091
274,matara,5.9485,80.5353,75.47,86,65,4.7,LK,1612661961
275,salalah,17.0151,54.0924,73.4,68,75,2.3,OM,1612661939
276,belyy yar,53.6039,91.3903,1.4,85,2,2.24,RU,1612662091
277,nuevo progreso,23.1667,-97.95,70.0,92,60,13.0,MX,1612662091
278,broken hill,-31.95,141.4333,69.8,52,0,14.97,AU,1612662091
279,lake cowichan,48.825,-124.0546,44.6,76,75,8.05,CA,1612661978
280,kaitangata,-46.2817,169.8464,66.0,74,2,10.0,NZ,1612662018
281,goderich,43.7501,-81.7165,19.4,79,100,17.27,CA,1612661976
282,souillac,-20.5167,57.5167,75.0,86,6,1.99,MU,1612662022
283,saldanha,-33.0117,17.9442,64.4,88,0,6.91,ZA,1612662065
284,mananjary,-21.2167,48.3333,78.62,83,88,10.22,MG,1612662092
285,meulaboh,4.1363,96.1285,79.41,83,80,4.5,ID,1612661993
286,pitiquito,30.7,-112.0833,69.01,20,0,6.89,MX,1612662092
287,muroto,33.2833,134.15,55.4,44,20,4.61,JP,1612661983
288,ngunguru,-35.6167,174.5,73.0,62,96,14.0,NZ,1612662092
289,nanortalik,60.1432,-45.2371,26.31,92,100,6.87,GL,1612661937
290,kamenka,51.3223,42.7678,5.0,78,98,12.12,RU,1612662092
291,eureka,40.8021,-124.1637,51.01,79,3,8.99,US,1612662092
292,komsomolskiy,40.4272,71.7189,41.0,56,100,4.61,UZ,1612661992
293,adrar,20.5022,-10.0711,55.92,42,100,9.86,MR,1612661957
294,reguengos de monsaraz,38.4253,-7.5349,48.0,93,20,12.66,PT,1612662092
295,innisfail,-17.5333,146.0333,86.47,69,100,6.8,AU,1612661953
296,sorong,-0.8833,131.25,82.0,77,100,1.05,ID,1612661981
297,esperance,-33.8667,121.9,60.8,94,75,12.66,AU,1612661947
298,kapuskasing,49.4169,-82.4331,-5.8,77,75,3.44,CA,1612662093
299,playa del carmen,20.6274,-87.0799,79.0,89,1,8.05,MX,1612662093
300,airai,-8.9266,125.4092,72.81,74,72,5.39,TL,1612661799
301,bethel,41.3712,-73.414,35.01,59,1,4.74,US,1612661937
302,sitka,57.0531,-135.33,33.8,55,40,6.91,US,1612662093
303,rocky mountain house,52.3668,-114.9188,-7.6,77,100,3.44,CA,1612662093
304,mayo,38.8876,-76.5119,42.8,56,1,3.85,US,1612661961
305,egvekinot,66.3167,-179.1667,-3.95,77,0,6.76,RU,1612661850
306,sananduva,-27.9497,-51.8067,56.53,89,0,4.5,BR,1612662093
307,chiredzi,-21.05,31.6667,72.7,92,69,4.99,ZW,1612662093
308,shangrao,28.4532,117.9686,61.75,70,0,5.26,CN,1612662093
309,suksun,57.1431,57.3949,1.09,92,100,18.28,RU,1612662093
310,usinsk,65.9939,57.5281,-32.94,81,100,14.61,RU,1612662093
311,pervomayskoye,43.919,46.7102,38.91,75,99,5.73,RU,1612662094
312,orsk,51.2049,58.5668,10.4,67,75,33.55,RU,1612662019
313,san vicente,-26.6167,-54.1333,59.77,92,0,3.71,AR,1612662094
314,teahupoo,-17.8333,-149.2667,86.0,62,20,12.66,PF,1612662023
315,sonipat,28.9833,77.0167,48.2,100,0,3.44,IN,1612661969
316,ruteng,-8.6136,120.4721,74.14,79,97,1.48,ID,1612662094
317,msanga,-6.05,36.0333,64.81,94,99,1.99,TZ,1612662094
318,geilo,60.5333,8.2076,3.0,78,0,1.97,NO,1612662094
319,quatre cocos,-20.2078,57.7625,75.0,86,4,1.99,MU,1612662095
320,port lincoln,-34.7333,135.8667,62.55,67,99,12.08,AU,1612662095
321,mehran,33.1222,46.1646,42.8,93,90,4.61,IR,1612662095
322,seoul,37.5683,126.9778,42.8,93,90,4.61,KR,1612662095
323,shatrovo,56.5167,64.6333,16.41,96,100,19.69,RU,1612662095
324,baykit,61.67,96.37,19.04,94,100,6.02,RU,1612662044
325,bud,39.447,-86.1758,23.0,66,100,10.89,US,1612662025
326,sompeta,18.9333,84.6,70.48,52,0,4.41,IN,1612662095
327,suzun,53.7841,82.3116,30.31,94,99,11.68,RU,1612662073
328,leshan,29.5623,103.7639,57.54,56,5,1.12,CN,1612662095
329,champerico,14.3,-91.9167,64.99,92,0,7.18,GT,1612662095
330,langfang,39.5097,116.6947,39.0,32,0,6.71,CN,1612662095
331,orlik,52.5178,99.825,-2.24,83,5,2.3,RU,1612662095
332,swan hill,-35.3378,143.5544,75.36,38,40,11.39,AU,1612661881
333,asau,46.4333,26.4,27.0,72,100,3.65,RO,1612662023
334,beira,-19.8436,34.8389,84.2,79,20,5.75,MZ,1612662096
335,isangel,-19.55,169.2667,86.0,79,20,5.75,VU,1612661984
336,axim,4.8699,-2.2405,79.56,87,56,9.69,GH,1612662096
337,velyka oleksandrivka,47.3197,33.3037,26.83,85,99,7.96,UA,1612662096
338,hangu,39.2489,117.7892,33.8,47,0,4.47,CN,1612662096
339,mayumba,-3.432,10.6554,79.03,83,100,2.33,GA,1612662096
340,tura,25.5198,90.2201,61.7,57,100,0.11,IN,1612661961
341,anloga,5.7947,0.8973,84.2,84,20,12.66,GH,1612661839
342,bocaiuva,-17.1078,-43.815,69.37,90,100,4.97,BR,1612662096
343,faya,18.3851,42.4509,46.4,87,40,1.07,SA,1612661987
344,effingham,32.3669,-81.3332,48.2,93,90,10.36,US,1612662096
345,ternate,0.8,127.4,84.27,69,100,2.3,ID,1612661979
346,bilma,18.6853,12.9164,59.59,29,6,5.86,NE,1612661816
347,kavaratti,10.5669,72.642,81.27,61,72,9.93,IN,1612662096
348,orocue,4.7912,-71.3354,82.8,61,75,8.12,CO,1612662097
349,povoa de varzim,41.3834,-8.7636,42.01,93,0,8.86,PT,1612662097
350,bojnurd,37.4747,57.329,41.0,93,90,8.43,IR,1612662097
351,vallenar,-28.5708,-70.7581,62.92,67,0,1.9,CL,1612662097
352,iqaluit,63.7506,-68.5145,26.6,68,90,11.5,CA,1612661799
353,port blair,11.6667,92.75,81.28,69,59,9.19,IN,1612661802
354,hovd,48.0056,91.6419,8.02,91,0,1.54,MN,1612661821
355,pierre,44.3683,-100.351,3.2,43,40,7.2,US,1612662097
356,victoria,22.2855,114.1577,73.0,46,0,11.01,HK,1612661937
357,pacific grove,36.6177,-121.9166,55.4,88,1,4.61,US,1612661861
358,portland,45.5234,-122.6762,46.99,87,90,16.11,US,1612661947
359,awbari,26.5921,12.7805,60.98,28,0,13.51,LY,1612662097
360,turkistan,43.0,68.0,38.43,90,100,2.46,KZ,1612662097
361,port-gentil,-0.7193,8.7815,81.5,79,99,13.78,GA,1612661977
362,kavieng,-2.5744,150.7967,85.33,64,29,2.33,PG,1612662060
363,san quintin,30.4833,-115.95,60.12,72,0,6.78,MX,1612661960
364,hatillo,18.4863,-66.8254,75.99,81,100,12.41,PR,1612662098
365,natal,-5.795,-35.2094,78.8,83,40,4.61,BR,1612661910
366,tezu,27.9167,96.1667,67.48,25,1,0.85,IN,1612662098
367,baker city,44.7749,-117.8344,37.99,69,92,3.36,US,1612662098
368,tolbazy,54.0241,55.8825,3.2,72,75,20.13,RU,1612662098
369,dubbo,-32.25,148.6167,78.8,57,40,9.22,AU,1612662015
370,ponta delgada,37.7333,-25.6667,59.0,88,75,23.02,PT,1612662098
371,tayu,-6.5397,111.0518,81.91,80,91,15.32,ID,1612662098
372,shingu,33.7333,135.9833,58.3,41,0,6.4,JP,1612662098
373,ayagoz,47.9714,80.4392,30.16,96,100,24.16,KZ,1612662098
374,norman wells,65.282,-126.8329,-27.4,68,75,2.3,CA,1612662098
375,pundaguitan,6.3711,126.1689,81.34,75,100,7.23,PH,1612662098
376,muros,42.7762,-9.0603,36.0,93,40,5.75,ES,1612661948
377,nizwa,22.9333,57.5333,48.79,64,0,0.72,OM,1612662098
378,kaeo,-35.1,173.7833,73.0,62,97,14.0,NZ,1612661945
379,bambui,-20.0064,-45.9769,68.61,93,81,4.38,BR,1612662099
380,pemberton,50.3164,-122.8027,35.6,93,90,2.3,CA,1612662099
381,kentau,43.5206,68.5094,34.34,94,99,1.52,KZ,1612662099
382,masallatah,32.6167,14.0,68.38,26,100,16.31,LY,1612662099
383,mandalgovi,45.7625,106.2708,8.37,84,0,6.02,MN,1612662099
384,cayenne,4.9333,-52.3333,77.0,100,90,8.05,GF,1612662009
385,preston,53.7667,-2.7167,37.99,90,89,13.0,GB,1612662099
386,sao joao da barra,-21.6403,-41.0511,71.1,96,100,14.67,BR,1612662099
387,nyrob,60.733,56.7202,-3.08,91,100,6.29,RU,1612662099
388,diego de almagro,-26.3667,-70.05,57.99,54,0,1.28,CL,1612661993
389,fairbanks,64.8378,-147.7164,-5.01,84,90,1.74,US,1612661803
390,georgiyevka,43.0369,74.7114,41.0,81,75,11.18,KZ,1612661851
391,inirida,3.8653,-67.9239,75.13,96,100,2.84,CO,1612662100
392,nokaneng,-19.6667,22.2667,68.76,92,100,6.42,BW,1612662100
393,naron,43.5167,-8.1528,46.99,100,90,5.75,ES,1612662100
394,vila do maio,15.1333,-23.2167,68.0,64,75,20.71,CV,1612662100
395,solwezi,-12.1688,26.3894,61.72,98,100,3.44,ZM,1612662100
396,salvador,13.8333,-88.9167,77.0,78,0,3.44,SV,1612662100
397,reitz,-27.8014,28.4273,58.24,85,100,4.9,ZA,1612662100
398,aklavik,68.2191,-135.0107,-7.6,71,90,11.5,CA,1612661970
399,aksu,41.1231,80.2644,28.02,78,100,0.07,CN,1612661733
400,arlit,18.7369,7.3853,62.6,25,100,4.99,NE,1612662100
401,puerto parra,6.6515,-74.0573,78.26,82,100,1.1,CO,1612662100
402,virginia beach,36.8529,-75.978,45.0,51,100,10.94,US,1612662086
403,kota kinabalu,5.9749,116.0724,84.2,74,20,1.14,MY,1612662100
404,beringovskiy,63.05,179.3167,-6.45,90,83,11.74,RU,1612661966
405,sur,22.5667,59.5289,62.17,66,0,6.78,OM,1612662015
406,los llanos de aridane,28.6585,-17.9182,59.0,72,0,5.75,ES,1612662101
407,birao,10.2849,22.7882,58.37,33,0,7.7,CF,1612662101
408,lichuan,30.3,108.85,44.94,93,98,0.89,CN,1612662101
409,vila franca do campo,37.7167,-25.4333,59.0,88,75,23.02,PT,1612661936
410,oriximina,-1.7656,-55.8661,78.15,85,72,5.99,BR,1612662101
411,omsukchan,62.5333,155.8,-2.92,88,100,9.57,RU,1612661980
412,soyo,-6.1349,12.3689,79.54,85,100,8.25,AO,1612662101
413,san lorenzo,-25.3333,-57.5333,71.6,78,0,3.44,PY,1612662101
414,perevoz,55.5961,44.5446,-6.12,89,100,13.0,RU,1612662101
415,newton,42.337,-71.2092,35.6,37,34,12.66,US,1612661960
416,penha,-26.7694,-48.6458,75.2,69,0,4.61,BR,1612662101
417,lentekhi,42.7856,42.7261,38.12,76,100,1.1,GE,1612662101
418,tilichiki,60.4667,166.1,20.77,90,100,20.74,RU,1612662102
419,tazmalt,36.3868,4.3989,50.54,71,45,5.1,DZ,1612662102
420,srednekolymsk,67.45,153.6833,-13.18,84,0,1.61,RU,1612662008
421,comodoro rivadavia,-45.8667,-67.5,55.4,71,40,8.05,AR,1612661750
422,westport,41.1415,-73.3579,39.2,45,1,4.61,US,1612662102
423,san ignacio,17.1561,-89.0714,77.0,78,0,2.75,BZ,1612662102
424,kismayo,-0.3582,42.5454,75.54,87,0,11.14,SO,1612662102
425,tianpeng,30.9866,103.9393,57.99,1,0,2.82,CN,1612662102
426,klaksvik,62.2266,-6.589,33.8,75,75,18.41,FO,1612662020
427,kindu,-2.95,25.95,70.5,92,91,1.54,CD,1612662102
428,lokhvytsya,50.3678,33.2602,1.85,93,0,6.46,UA,1612662102
429,plattsburgh,44.6995,-73.4529,24.8,58,90,8.05,US,1612662102
430,seydi,39.4816,62.9137,47.1,70,100,6.44,TM,1612661837
431,pincher creek,49.4833,-113.952,-5.01,77,90,11.5,CA,1612662103
432,porto novo,6.4965,2.6036,84.2,84,40,12.66,BJ,1612662103
433,zhicheng,30.2956,111.5047,48.99,97,100,4.09,CN,1612662103
434,hervey bay,-25.2986,152.8535,91.0,45,0,10.36,AU,1612662103
435,santa maria,-29.6842,-53.8069,66.2,94,0,1.39,BR,1612661965
436,raudeberg,61.9875,5.1352,24.01,68,0,8.05,NO,1612661941
437,banda aceh,5.5577,95.3222,81.79,73,26,9.64,ID,1612662103
438,cobourg,50.2667,10.9667,35.01,92,100,1.01,DE,1612662103
439,deyang,31.1302,104.382,57.99,69,0,2.66,CN,1612662103
440,baruun-urt,46.6806,113.2792,-6.63,85,1,9.13,MN,1612662103
441,marawi,7.9986,124.2928,80.01,81,65,4.0,PH,1612662103
442,george,-33.963,22.4617,66.2,88,20,6.91,ZA,1612662103
443,luena,-11.7833,19.9167,62.73,98,100,5.32,AO,1612662104
444,mbandaka,0.0487,18.2603,73.63,84,3,3.51,CD,1612662104
445,margate,51.3813,1.3862,36.0,85,100,8.01,GB,1612662104
446,syriam,16.7722,96.2378,75.2,88,40,2.3,MM,1612662104
447,avera,33.194,-82.5271,41.0,91,90,9.22,US,1612661944
448,mocuba,-16.8392,36.9856,73.51,96,100,3.11,MZ,1612662104
449,mahonda,-6.45,39.4667,78.8,89,20,4.61,TZ,1612662104
450,hirara,24.8,125.2833,69.8,67,0,7.31,JP,1612662038
451,chipinge,-20.1883,32.6236,63.57,100,53,1.52,ZW,1612662104
452,ornes,66.8689,13.7078,28.4,80,40,8.05,NO,1612662104
453,san cristobal,7.7669,-72.225,65.98,89,100,1.61,VE,1612662066
454,bandarbeyla,9.4942,50.8122,74.75,82,7,11.14,SO,1612662104
455,roald,62.5833,6.1333,24.8,68,0,14.97,NO,1612662081
456,fortuna,40.5982,-124.1573,50.0,93,40,11.5,US,1612661783
457,la ronge,55.1001,-105.2842,-23.8,62,43,5.75,CA,1612662104
458,road town,18.4167,-64.6167,75.99,94,20,10.36,VG,1612662104
459,humaita,-7.5061,-63.0208,74.35,97,95,2.17,BR,1612662104
460,havre-saint-pierre,50.2334,-63.5986,28.4,100,90,29.93,CA,1612662105
461,tuy hoa,13.0833,109.3,74.25,83,91,7.74,VN,1612662105
462,ust-tsilma,65.441,52.1498,-31.4,81,100,10.02,RU,1612662105
463,puerto princesa,9.7392,118.7353,86.0,70,20,13.8,PH,1612662105
464,beroroha,-21.6667,45.1667,74.16,84,0,2.24,MG,1612662105
465,sibolga,1.7427,98.7792,82.67,65,96,1.57,ID,1612661737
466,haian,32.5436,120.45,60.01,55,0,2.64,CN,1612662105
467,jardim,-21.4803,-56.1381,66.65,75,0,2.95,BR,1612662105
468,panama city,8.9936,-79.5197,80.6,83,20,8.05,PA,1612662011
469,arman,59.7,150.1667,13.39,86,100,17.13,RU,1612662016
470,labuan,5.2767,115.2417,82.4,83,20,2.3,MY,1612662105
471,campbell river,50.0163,-125.2446,42.8,65,20,13.8,CA,1612661817
472,capinzal,-27.3436,-51.6119,58.98,85,0,2.15,BR,1612662106
473,qianguo,45.1171,124.8568,1.17,90,6,6.78,CN,1612662106
474,saint-francois,46.4154,3.9054,46.99,93,90,12.66,FR,1612661964
475,jacareacanga,-6.2222,-57.7528,74.35,93,100,2.1,BR,1612661841
476,kaka,37.3482,59.6143,50.49,74,100,8.34,TM,1612662106
477,navalmoral de la mata,39.8916,-5.5406,43.0,92,9,3.0,ES,1612662106
478,peleduy,59.6289,112.7406,3.11,91,96,5.82,RU,1612662106
479,rehoboth,-23.3167,17.0833,71.58,23,0,13.02,NA,1612662106
480,tawau,4.2498,117.8871,82.4,83,20,2.3,MY,1612662106
481,yerbogachen,61.2767,108.0108,-2.04,92,100,9.15,RU,1612662106
482,general pico,-35.6566,-63.7568,74.77,33,0,11.3,AR,1612662106
483,pinahat,26.8839,78.3781,50.29,58,0,5.86,IN,1612662106
484,la baule-escoublac,47.2922,-2.364,37.4,93,0,4.61,FR,1612662106
485,miles city,46.4083,-105.8406,1.4,71,90,12.66,US,1612662106
486,khanna,30.7044,76.2231,46.54,80,0,6.49,IN,1612662107
487,fangshan,39.6983,115.9925,37.99,34,22,1.01,CN,1612661953
488,jianhu,29.9799,120.5712,51.8,93,0,2.24,CN,1612662107
489,pangoa,-12.1167,-73.0,69.96,95,100,1.81,PE,1612662107
490,lakatoro,-16.0999,167.4164,84.29,64,28,6.42,VU,1612661961
491,porto empedocle,37.2934,13.5264,50.0,70,100,10.27,IT,1612662107
492,menomonie,44.8755,-91.9193,-5.8,59,1,11.5,US,1612662107
493,kichera,55.9375,110.0997,4.19,88,100,0.81,RU,1612662107
494,spassk,52.747,87.7545,18.05,93,0,4.79,RU,1612662107
495,chapais,49.7834,-74.8492,12.2,79,40,11.5,CA,1612662108
496,abu kamal,34.4506,40.9171,51.19,58,0,10.02,SY,1612662108
497,belur,13.1667,75.8667,60.04,62,42,4.27,IN,1612662108
498,randazzo,37.8774,14.9501,55.0,100,100,2.3,IT,1612662108
499,tema,5.667,-0.0166,82.4,89,20,9.22,GH,1612662108
500,hofn,64.2539,-15.2082,32.36,92,91,19.08,IS,1612662108
501,winnemucca,40.973,-117.7357,50.0,32,1,13.8,US,1612662108
502,khasan,42.4308,130.6434,17.42,84,0,14.38,RU,1612662037
503,opuwo,-18.0607,13.84,70.09,44,91,2.86,NA,1612662108
504,lukulu,-14.3707,23.242,66.18,96,100,7.16,ZM,1612662108
505,fort thomas,39.0751,-84.4472,30.99,59,1,6.91,US,1612662069
506,dingle,10.9995,122.6711,81.48,81,79,15.01,PH,1612661988
507,sitrah,26.1547,50.6206,68.0,83,20,6.91,BH,1612662108
508,redcliffe,-27.2307,153.0973,91.0,58,75,8.05,AU,1612662109
509,saint-pierre,-21.3393,55.4781,78.8,69,40,6.91,RE,1612662109
510,baneh,35.9975,45.8853,39.42,87,100,2.55,IR,1612662109
511,vila,42.0304,-8.1588,37.0,89,63,2.57,PT,1612662065
512,garden city,42.3256,-83.331,18.0,62,90,10.36,US,1612662109
513,san-pedro,4.7485,-6.6363,78.51,90,1,8.23,CI,1612662109
514,talnakh,69.4865,88.3972,-29.16,72,0,1.81,RU,1612661838
515,pinotepa nacional,16.3167,-98.0167,71.76,82,0,1.66,MX,1612662109
516,narasannapeta,18.4167,84.05,68.04,68,0,7.54,IN,1612662109
517,lisakovsk,52.5369,62.4936,5.5,89,49,25.14,KZ,1612662109
518,chernyshevskiy,63.0128,112.4714,-26.48,88,100,2.44,RU,1612662110
519,san miguel,13.4833,-88.1833,74.05,76,0,3.38,SV,1612662110
520,ornskoldsvik,63.2909,18.7153,14.0,92,0,11.5,SE,1612661888
521,moree,-29.4667,149.85,82.4,47,40,14.97,AU,1612662110
522,oktyabrskiy,54.4815,53.471,-2.04,89,100,14.83,RU,1612662110
523,batagay-alyta,67.8006,130.4114,-25.87,83,100,1.61,RU,1612662110
524,bako,5.7833,36.5667,67.78,46,33,3.71,ET,1612662110
525,broome,42.2506,-75.833,24.8,33,1,3.44,US,1612662110
526,tuatapere,-46.1333,167.6833,71.83,47,10,6.04,NZ,1612662004
527,ishigaki,24.3448,124.1572,73.4,68,20,9.22,JP,1612662110
528,fuyang,32.9,115.8167,56.44,51,16,6.69,CN,1612662110
529,dickson,36.077,-87.3878,43.0,52,90,3.44,US,1612661959
530,kieta,-6.2167,155.6333,86.18,70,29,9.46,PG,1612662110
531,hakkari,37.5833,44.1667,22.82,75,0,3.33,TR,1612661969
532,gerash,27.6652,54.1371,48.2,71,0,5.23,IR,1612662111
533,naze,28.3667,129.4833,61.03,66,0,8.97,JP,1612662111
534,calama,-22.4667,-68.9333,62.6,45,0,16.11,CL,1612662018
535,kununurra,-15.7667,128.7333,84.2,89,40,4.61,AU,1612661831
536,tarnos,43.5417,-1.4628,48.2,71,75,9.22,FR,1612662111
537,saint-joseph,-21.3667,55.6167,78.8,69,40,6.91,RE,1612662033
538,turayf,31.6725,38.6637,39.2,100,0,4.61,SA,1612662111
539,lagoa,39.05,-27.9833,59.99,92,100,26.64,PT,1612662029
540,olafsvik,64.8945,-23.7142,33.49,84,24,16.08,IS,1612661951
541,sembe,1.6481,14.5806,73.74,84,100,1.95,CG,1612662111
542,kilcormac,53.1742,-7.7256,39.99,89,75,7.0,IE,1612662111
543,kupang,-10.1667,123.5833,84.2,84,40,11.5,ID,1612661924
544,maceio,-9.6658,-35.7353,77.0,88,20,3.44,BR,1612662011
545,grand-santi,4.25,-54.3833,73.0,97,100,2.59,GF,1612662111
546,bad doberan,54.1071,11.9005,28.0,80,90,23.02,DE,1612662111
547,sidrolandia,-20.9319,-54.9614,69.8,73,0,3.44,BR,1612662112
548,genhe,50.7833,121.5167,-8.16,84,36,1.77,CN,1612662112
549,tabou,4.423,-7.3528,78.53,90,0,7.31,CI,1612662112
550,ust-koksa,50.2696,85.6108,16.68,87,68,2.68,RU,1612662112
551,mount gambier,-37.8333,140.7667,62.6,59,90,13.8,AU,1612662059
552,vestmannaeyjar,63.4427,-20.2734,38.37,76,0,27.38,IS,1612662067
553,baindur,13.8667,74.6333,73.83,43,49,4.65,IN,1612662112
554,biu,10.6129,12.1946,62.35,30,100,6.85,NG,1612661806
555,mollendo,-17.0231,-72.0147,70.93,81,100,3.91,PE,1612662112
556,luoyang,34.6836,112.4536,51.96,39,100,12.3,CN,1612662112
557,daru,-9.0763,143.2092,89.15,61,17,8.86,PG,1612662112
558,villamontes,-21.25,-63.5,76.75,52,99,0.96,BO,1612662112
559,paita,-5.0892,-81.1144,74.64,76,83,12.64,PE,1612661965
560,chachapoyas,-6.2317,-77.869,55.92,90,97,0.94,PE,1612662113
561,lekoni,-1.5843,14.2591,74.71,83,33,4.7,GA,1612662113
562,prestea,5.4327,-2.1428,75.9,95,7,3.98,GH,1612661962
563,ust-omchug,61.15,149.6333,-5.82,87,100,8.48,RU,1612662113
564,agadir,30.4202,-9.5982,51.8,87,20,12.66,MA,1612661916
565,cabo san lucas,22.8909,-109.9124,69.8,60,20,8.05,MX,1612661987
566,zhanaozen,43.3,52.8,33.12,87,7,8.59,KZ,1612662113
567,montes altos,-5.8333,-47.0667,73.74,83,28,3.18,BR,1612662113
